SALE TYPE,SOLD DATE,PROPERTY TYPE,ADDRESS,CITY,STATE OR PROVINCE,ZIP OR POSTAL CODE,PRICE,BEDS,BATHS,LOCATION,SQUARE FEET,LOT SIZE,YEAR BUILT,DAYS ON MARKET,$/SQUARE FEET,HOA/MONTH,STATUS,NEXT OPEN HOUSE START TIME,NEXT OPEN HOUSE END TIME,URL (SEE http://www.redfin.com/buy-a-home/comparative-market-analysis FOR INFO ON PRICING),SOURCE,MLS#,FAVORITE,INTERESTED,LATITUDE,LONGITUDE
MLS Listing,,Condo/Co-op,1998 Broadway #807,San Francisco,CA,94109,1350000,2,,San Francisco,1030,15195,1964,1,1311,1288,Active,,,http://www.redfin.com/CA/San-Francisco/1998-Broadway-94109/unit-807/home/1865773,San Francisco MLS,421583886,N,Y,37.7953251,-122.4298254
MLS Listing,,Condo/Co-op,1001 Pine St #809,SAN FRANCISCO,CA,94109,698000,1,1.0,SAN FRANCISCO,616,,1963,6,1133,636,Active,August-15-2021 01:00 PM,August-15-2021 03:00 PM,http://www.redfin.com/CA/San-Francisco/1001-Pine-St-94109/unit-809/home/1135226,MLSListings,ML81857160,N,Y,37.790348,-122.412568
MLS Listing,,Single Family Residential,618 Mangels Ave,San Francisco,CA,94127,1798000,3,3.0,San Francisco,1920,3746,1912,7,936,,Active,August-15-2021 02:00 PM,August-15-2021 04:00 PM,http://www.redfin.com/CA/San-Francisco/618-Mangels-Ave-94127/home/1719034,San Francisco MLS,421582030,N,Y,37.7332736,-122.4516557
MLS Listing,,Condo/Co-op,163 Shipley St,San Francisco,CA,94107,925000,2,1.0,San Francisco,801,10427,1992,15,1155,599,Active,,,http://www.redfin.com/CA/San-Francisco/163-Shipley-94107/home/1950146,San Francisco MLS,421576170,N,Y,37.7805383,-122.4018925
MLS Listing,,Multi-Family (2-4 Unit),22 30th St,San Francisco,CA,94110,998000,3,2.0,San Francisco,1604,801,1907,72,622,,Active,,,http://www.redfin.com/CA/San-Francisco/22-30th-St-94110/home/808517,San Francisco MLS,421558100,N,Y,37.7424885,-122.422707
MLS Listing,,Condo/Co-op,388 Fulton St #405,SAN FRANCISCO,CA,94102,898000,2,1.0,SAN FRANCISCO,720,,2016,100,1247,639,Active,,,http://www.redfin.com/CA/San-Francisco/388-Fulton-St-94102/unit-405/home/105419644,MLSListings,ML81842102,N,Y,37.7790326,-122.4231449
MLS Listing,,Condo/Co-op,248 Myrtle St,San Francisco,CA,94109,799000,2,1.0,San Francisco,975,3828,1900,101,819,461,Active,,,http://www.redfin.com/CA/San-Francisco/248-Myrtle-St-94109/home/1491675,San Francisco MLS,421544867,N,Y,37.7852487,-122.4221514
MLS Listing,,Condo/Co-op,255 Berry #308,SAN FRANCISCO,CA,94158,1199800,2,1.0,SAN FRANCISCO,1045,,2004,1,1148,799,Active,,,http://www.redfin.com/CA/San-Francisco/255-Berry-St-94158/unit-308/home/1058424,MLSListings,ML81858073,N,Y,37.7743869,-122.3947812
MLS Listing,,Condo/Co-op,1523 Franklin St Unit C,San Francisco,CA,94109,3388000,3,3.0,San Francisco,,,2021,1,,1153,Active,,,http://www.redfin.com/CA/San-Francisco/1523-Franklin-St-94109/unit-C/home/176103529,San Francisco MLS,421584315,N,Y,37.7886202,-122.4239241
MLS Listing,,Single Family Residential,326 Hearst Ave,San Francisco,CA,94112,1798000,4,3.0,San Francisco,2267,2495,1963,1,793,,Active,August-12-2021 05:00 PM,August-12-2021 06:30 PM,http://www.redfin.com/CA/San-Francisco/326-Hearst-Ave-94112/home/2000743,San Francisco MLS,421558597,N,Y,37.7308975,-122.4449766
MLS Listing,,Condo/Co-op,77 Dow Pl #306,San Francisco,CA,94107,899000,1,1.5,San Francisco,1254,18962,2002,1,717,955,Active,,,http://www.redfin.com/CA/San-Francisco/77-Dow-Pl-94107/unit-306/home/1465498,San Francisco MLS,421579343,N,Y,37.7840596,-122.3966174
MLS Listing,,Condo/Co-op,1720 Dolores St,San Francisco,CA,94110,998000,1,1.0,San Francisco,955,1197,1933,1,1045,350,Active,August-14-2021 11:00 AM,August-14-2021 01:00 PM,http://www.redfin.com/CA/San-Francisco/1720-Dolores-St-94110/home/28939233,San Francisco MLS,421582931,N,Y,37.7418064,-122.4243961
MLS Listing,,Single Family Residential,207 Augusta St,SAN FRANCISCO,CA,94124,799950,4,2.0,SAN FRANCISCO,1797,2962,1910,1,445,,Active,August-14-2021 01:30 PM,August-14-2021 04:00 PM,http://www.redfin.com/CA/San-Francisco/207-Augusta-St-94124/home/897126,MLSListings,ML81858033,N,Y,37.7341843,-122.4048495
MLS Listing,,Townhouse,684 Clarendon Ave,San Francisco,CA,94131,1295000,2,2.5,San Francisco,1485,693,1977,1,872,823,Active,August-14-2021 12:00 PM,August-14-2021 02:00 PM,http://www.redfin.com/CA/San-Francisco/684-Clarendon-Ave-94131/home/1541751,San Francisco MLS,421581548,N,Y,37.752127,-122.458296
MLS Listing,,Condo/Co-op,11 Perego Ter #3,San Francisco,CA,94131,1095000,3,2.0,San Francisco,1470,36709,1962,1,745,560,Active,August-13-2021 12:00 PM,August-13-2021 01:00 PM,http://www.redfin.com/CA/San-Francisco/11-Perego-Ter-94131/unit-3/home/1541961,San Francisco MLS,421584259,N,Y,37.7502628,-122.4443883
MLS Listing,,Single Family Residential,4524 Cabrillo St,San Francisco,CA,94121,1745000,5,3.0,San Francisco,2030,2696,1936,1,860,,Active,,,http://www.redfin.com/CA/San-Francisco/4524-Cabrillo-St-94121/home/622782,San Francisco MLS,421584068,N,Y,37.773618,-122.507322
MLS Listing,,Single Family Residential,15 Buena Vista Ter,San Francisco,CA,94117,12750000,5,4.5,San Francisco,7138,5000,1917,1,1786,,Active,,,http://www.redfin.com/CA/San-Francisco/15-Buena-Vista-Ter-94117/home/12277172,BAREIS,421574504,N,Y,37.7687866,-122.4381201
MLS Listing,,Condo/Co-op,41 - A Landers St,San Francisco,CA,94114,795000,1,1.0,San Francisco,620,3125,,1,1282,313,Active,August-14-2021 12:00 PM,August-14-2021 02:00 PM,http://www.redfin.com/CA/San-Francisco/41-Landers-St-94114/home/704017,San Francisco MLS,421584297,N,Y,37.767121,-122.42748
MLS Listing,,Single Family Residential,3021 Market St,San Francisco,CA,94114,995000,2,2.0,San Francisco,,1559,1900,1,,,Active,August-14-2021 12:00 PM,August-14-2021 01:30 PM,http://www.redfin.com/CA/San-Francisco/3021-Market-St-94114/home/1725702,San Francisco MLS,421583613,N,Y,37.7608875,-122.4415262
MLS Listing,,Single Family Residential,1534 39th Ave,San Francisco,CA,94122,1195000,2,1.0,San Francisco,1293,3000,1939,1,924,,Active,August-14-2021 12:00 PM,August-14-2021 02:00 PM,http://www.redfin.com/CA/San-Francisco/1534-39th-Ave-94122/home/1219271,San Francisco MLS,421584007,N,Y,37.7582127,-122.4980859
MLS Listing,,Multi-Family (5+ Unit),1521 Taylor St,San Francisco,CA,94133,4000000,0,,San Francisco,7020,2739,1968,1,570,,Active,,,http://www.redfin.com/CA/San-Francisco/1521-Taylor-St-94133/home/545862,San Francisco MLS,421584103,N,Y,37.7963927,-122.4136544
MLS Listing,,Single Family Residential,2526 14th Ave,San Francisco,CA,94127,2495000,4,3.5,San Francisco,2758,4499,1931,1,905,,Active,,,http://www.redfin.com/CA/San-Francisco/2526-14th-Ave-94127/home/1174418,San Francisco MLS,421583312,N,Y,37.7408889,-122.469822
MLS Listing,,Condo/Co-op,280 Spear St Unit 34A,San Francisco,CA,94105,2825000,2,2.0,San Francisco,1735,47916,,1,1628,1351,Active,,,http://www.redfin.com/CA/San-Francisco/280-Spear-St-94105/unit-34A/home/170002542,San Francisco MLS,421584267,N,Y,37.7903739,-122.3913812
MLS Listing,,Multi-Family (5+ Unit),1565 Washington St,San Francisco,CA,94109,5900000,0,,San Francisco,9861,4403,1909,1,598,,Active,,,http://www.redfin.com/CA/San-Francisco/1565-Washington-St-94109/home/547056,San Francisco MLS,421584101,N,Y,37.793387,-122.4190081
MLS Listing,,Condo/Co-op,1331 Stevenson St,San Francisco,CA,94103,650000,1,1.0,San Francisco,600,,1907,1,1083,266,Active,August-14-2021 02:00 PM,August-14-2021 04:00 PM,http://www.redfin.com/CA/San-Francisco/1331-Stevenson-St-94103/home/1486927,San Francisco MLS,421584257,N,Y,37.7710718,-122.4214979
MLS Listing,,Condo/Co-op,346 Lexington St,San Francisco,CA,94110,868000,2,1.0,San Francisco,962,1611,1880,1,902,440,Active,August-14-2021 11:00 AM,August-14-2021 01:00 PM,http://www.redfin.com/CA/San-Francisco/346-Lexington-St-94110/home/1890129,San Francisco MLS,421581854,N,Y,37.7577634,-122.4206158
MLS Listing,,Single Family Residential,2326 45th Ave,San Francisco,CA,94116,1088000,3,2.0,San Francisco,1000,3000,1940,1,1088,,Active,August-14-2021 01:00 PM,August-14-2021 03:00 PM,http://www.redfin.com/CA/San-Francisco/2326-45th-Ave-94116/home/2016398,San Francisco MLS,421583456,N,Y,37.7431377,-122.5034312
MLS Listing,,Condo/Co-op,353 Arlington St,San Francisco,CA,94131,1198000,2,1.0,San Francisco,1263,1850,1989,1,949,,Active,August-12-2021 11:00 AM,August-12-2021 02:00 PM,http://www.redfin.com/CA/San-Francisco/353-Arlington-St-94131/home/1114904,San Francisco MLS,421580258,N,Y,37.7361941,-122.4278087
MLS Listing,,Condo/Co-op,3736 Cesar Chavez St,San Francisco,CA,94114,2595000,4,4.0,San Francisco,2690,3470,1900,1,965,248,Active,August-14-2021 02:00 PM,August-14-2021 04:00 PM,http://www.redfin.com/CA/San-Francisco/3736-Cesar-Chavez-94110/home/110051936,San Francisco MLS,421571632,N,Y,37.7481211,-122.4233329
MLS Listing,,Single Family Residential,360 Steiner St,San Francisco,CA,94117,1698000,3,2.0,San Francisco,1770,1563,1957,1,,,Active,,,http://www.redfin.com/CA/San-Francisco/360-Steiner-St-94117/home/1392848,MetroList,421583766,N,Y,37.7727221,-122.4321037
MLS Listing,,Single Family Residential,52-54 Alvarado St,San Francisco,CA,94110,2000000,4,3.0,Mission District,2660,2848,1906,1,752,,Active,,,http://www.redfin.com/CA/San-Francisco/52-Alvarado-St-94110/home/1292387,"bridgeMLS, Bay East AOR, or Contra Costa AOR",40962798,N,Y,37.7546614,-122.4223395
MLS Listing,,Single Family Residential,1562 44th Ave,San Francisco,CA,94122,1295000,3,1.0,San Francisco,1821,3000,1936,1,711,,Active,,,http://www.redfin.com/CA/San-Francisco/1562-44th-Ave-94122/home/1071881,BAREIS,421578836,N,Y,37.757502,-122.5032916
MLS Listing,,Single Family Residential,2242 17th Ave,San Francisco,CA,94116,1495000,3,3.0,San Francisco,2040,2996,,1,733,,Active,August-15-2021 02:00 PM,August-15-2021 04:00 PM,http://www.redfin.com/CA/San-Francisco/2242-17th-Ave-94116/home/1404064,San Francisco MLS,421583196,N,Y,37.746069,-122.4734594
MLS Listing,,Multi-Family (5+ Unit),1450 47th Ave,San Francisco,CA,94122,1695000,0,,San Francisco,3614,2996,1909,1,469,,Active,,,http://www.redfin.com/CA/San-Francisco/1450-47th-Ave-94122/home/1516347,San Francisco MLS,421584151,N,Y,37.7594249,-122.506603
MLS Listing,,Multi-Family (5+ Unit),164 23rd Ave,San Francisco,CA,94121,3700000,0,,San Francisco,5757,3000,1964,1,643,,Active,,,http://www.redfin.com/CA/San-Francisco/164-23rd-Ave-94121/home/970860,San Francisco MLS,421583383,N,Y,37.7846999,-122.4827052
MLS Listing,,Single Family Residential,1360 Brussels St,SAN FRANCISCO,CA,94134,998000,3,1.0,SAN FRANCISCO,1326,2792,1940,1,753,,Active,August-14-2021 01:00 PM,August-14-2021 04:00 PM,http://www.redfin.com/CA/San-Francisco/1360-Brussels-St-94134/home/1345417,MLSListings,ML81857911,N,Y,37.7155103,-122.4009989
MLS Listing,,Multi-Family (2-4 Unit),327 24th Ave,San Francisco,CA,94121,2250000,7,2.0,San Francisco,3700,3000,1986,1,608,,Active,,,http://www.redfin.com/CA/San-Francisco/327-24th-Ave-94121/home/1627832,San Francisco MLS,421584046,N,Y,37.7832306,-122.4841052
MLS Listing,,Condo/Co-op,601 Van Ness Ave #649,San Francisco,CA,94102,670000,1,1.0,San Francisco,720,105806,1982,1,931,940,Active,August-15-2021 02:00 PM,August-15-2021 04:00 PM,http://www.redfin.com/CA/San-Francisco/601-Van-Ness-Ave-94102/unit-649/home/575543,San Francisco MLS,421584006,N,Y,37.7813653,-122.4215253
MLS Listing,,Single Family Residential,490 Faxon Ave,San Francisco,CA,94112,895000,2,1.0,San Francisco,1013,1385,1941,1,884,,Active,,,http://www.redfin.com/CA/San-Francisco/490-Faxon-Ave-94112/home/813678,San Francisco MLS,421583954,N,Y,37.7235058,-122.4600703
MLS Listing,,Condo/Co-op,601 Van Ness Ave #151,San Francisco,CA,94102,999000,2,3.0,San Francisco,1737,105806,1982,1,575,1030,Active,August-15-2021 02:00 PM,August-15-2021 04:00 PM,http://www.redfin.com/CA/San-Francisco/601-Van-Ness-Ave-94102/unit-151/home/1460043,San Francisco MLS,421583966,N,Y,37.7813653,-122.4215253
MLS Listing,,Single Family Residential,19 Delmar St,San Francisco,CA,94117,2995000,4,2.5,San Francisco,2463,2000,1890,1,1216,,Active,August-14-2021 01:00 PM,August-14-2021 04:00 PM,http://www.redfin.com/CA/San-Francisco/19-Delmar-St-94117/home/1492437,San Francisco MLS,421583285,N,Y,37.7687456,-122.445994
MLS Listing,,Single Family Residential,120122 19Th Ave,San Francisco,CA,94121,5260000,7,7.5,Lake District,4554,3000,1984,1,1155,,Active,,,http://www.redfin.com/CA/San-Francisco/120122-19th-Ave-94121/home/176078439,"bridgeMLS, Bay East AOR, or Contra Costa AOR",40962241,N,Y,37.7755241,-122.4779782
MLS Listing,,Condo/Co-op,122 19Th Ave,San Francisco,CA,94121,3380000,4,5.0,Lake District,3015,3000,1984,1,1121,,Active,,,http://www.redfin.com/CA/San-Francisco/122-19th-Ave-94121/home/176078433,"bridgeMLS, Bay East AOR, or Contra Costa AOR",40962157,N,Y,37.785539,-122.4784835
MLS Listing,,Condo/Co-op,120 19Th Ave,San Francisco,CA,94121,1880000,3,2.5,Lake Merced,1539,3000,1984,1,1222,,Active,,,http://www.redfin.com/CA/San-Francisco/120-19th-Ave-94121/home/604939,"bridgeMLS, Bay East AOR, or Contra Costa AOR",40962149,N,Y,37.7855663,-122.4783512
MLS Listing,,Multi-Family (5+ Unit),1588 - 1592 Union St,San Francisco,CA,94123,2250000,3,3.0,San Francisco,4669,2925,1902,1,482,,Active,,,http://www.redfin.com/CA/San-Francisco/1588-Union-St-94123/home/110053965,San Francisco MLS,421583927,N,Y,37.7986269,-122.4254325
MLS Listing,,Condo/Co-op,400 Bristol Ct #209,San Francisco,CA,94130,1007100,1,1.0,San Francisco,898,231763,,1,1121,1308,Active,,,http://www.redfin.com/CA/San-Francisco/1-Yerba-Buena-Rd-94130/unit-209/home/176078422,San Francisco MLS,421583932,N,Y,37.8108709,-122.3668348
MLS Listing,,Single Family Residential,85 Melba Ave,San Francisco,CA,94132,1890000,4,3.0,San Francisco,2700,3998,1936,1,700,,Active,August-14-2021 12:00 PM,August-14-2021 02:00 PM,http://www.redfin.com/CA/San-Francisco/85-Melba-Ave-94132/home/1664479,San Francisco MLS,421583272,N,Y,37.7313745,-122.4785005
MLS Listing,,Condo/Co-op,116 Corbett Ave,San Francisco,CA,94114,799000,1,1.0,San Francisco,775,1187,1937,1,1031,160,Active,August-14-2021 12:00 PM,August-14-2021 02:00 PM,http://www.redfin.com/CA/San-Francisco/116-Corbett-Ave-94114/home/899898,San Francisco MLS,421568830,N,Y,37.7618506,-122.4409218
MLS Listing,,Multi-Family (2-4 Unit),4315 - 4317 Lincoln Way,San Francisco,CA,94122,1850000,3,3.0,San Francisco,2311,2495,1933,1,801,,Active,,,http://www.redfin.com/CA/San-Francisco/4315-Lincoln-Way-94122/home/1061515,San Francisco MLS,421579220,N,Y,37.7639827,-122.5043935
MLS Listing,,Single Family Residential,686 Colby St,San Francisco,CA,94134,999000,3,2.0,Portola,,1750,1951,1,,,Active,August-15-2021 01:00 PM,August-15-2021 04:00 PM,http://www.redfin.com/CA/San-Francisco/686-Colby-St-94134/home/779890,"bridgeMLS, Bay East AOR, or Contra Costa AOR",40959777,N,Y,37.7218708,-122.4112207
MLS Listing,,Condo/Co-op,4231 24th St,San Francisco,CA,94114,2895000,4,4.5,San Francisco,2580,3036,1929,1,1122,,Active,August-14-2021 01:00 PM,August-14-2021 04:00 PM,http://www.redfin.com/CA/San-Francisco/4231-24th-St-94114/home/2025252,San Francisco MLS,421583669,N,Y,37.7508695,-122.4370713
MLS Listing,,Condo/Co-op,426 Fillmore St Unit B,SAN FRANCISCO,CA,94117,1260000,2,2.0,SAN FRANCISCO,1200,2500,1988,1,1050,252,Active,August-14-2021 02:00 PM,August-14-2021 04:00 PM,http://www.redfin.com/CA/San-Francisco/426-Fillmore-St-94117/unit-B/home/1699884,MLSListings,ML81857811,N,Y,37.7734754,-122.4304756
MLS Listing,,Single Family Residential,224 Laidley St,San Francisco,CA,94131,5795000,4,4.0,San Francisco,,1999,,1,,,Active,,,http://www.redfin.com/CA/San-Francisco/224-Laidley-St-94131/home/1736339,San Francisco MLS,421583544,N,Y,37.7383322,-122.4282217
MLS Listing,,Single Family Residential,105 Vienna St,San Francisco,CA,94112,699000,2,,San Francisco,924,1875,1901,1,756,,Active,,,http://www.redfin.com/CA/San-Francisco/105-Vienna-St-94112/home/1663518,San Francisco MLS,421583798,N,Y,37.7264277,-122.4256335
MLS Listing,,Condo/Co-op,28 Woodland Ave,San Francisco,CA,94117,1499000,2,2.0,San Francisco,1828,2525,1907,1,820,,Active,August-14-2021 02:00 PM,August-14-2021 04:00 PM,http://www.redfin.com/CA/San-Francisco/28-Woodland-Ave-94117/home/1589950,San Francisco MLS,421574935,N,Y,37.7637541,-122.453106
MLS Listing,,Condo/Co-op,28 - A Woodland Ave,San Francisco,CA,94117,1499000,2,1.0,San Francisco,1355,2525,1907,1,1106,,Active,August-14-2021 02:00 PM,August-14-2021 04:00 PM,http://www.redfin.com/CA/San-Francisco/28A-Woodland-Ave-94117/home/176074767,San Francisco MLS,421574924,N,Y,37.763754,-122.453106
MLS Listing,,Single Family Residential,732 16th Ave,San Francisco,CA,94118,1498000,7,6.0,San Francisco,,3188,,2,,,Active,August-14-2021 11:00 AM,August-14-2021 01:00 PM,http://www.redfin.com/CA/San-Francisco/732-16th-Ave-94118/home/2026951,San Francisco MLS,421583698,N,Y,37.7742035,-122.4744322
MLS Listing,,Multi-Family (2-4 Unit),260 - 262 25th Ave,San Francisco,CA,94121,1990000,3,4.5,San Francisco,1604,3000,1924,2,1241,,Active,,,http://www.redfin.com/CA/San-Francisco/260-25th-Ave-94121/home/176070812,San Francisco MLS,421583650,N,Y,37.7845823,-122.4847716
MLS Listing,,Single Family Residential,2770 23rd St,San Francisco,CA,94110,924900,0,,San Francisco,1454,1285,1900,2,636,,Active,,,http://www.redfin.com/CA/San-Francisco/2770-23rd-St-94110/home/936266,San Francisco MLS,421583645,N,Y,37.754665,-122.4078807
MLS Listing,,Multi-Family (5+ Unit),435 - 441 Powell St,San Francisco,CA,94102,20000000,1,,San Francisco,26152,3994,1907,2,765,,Active,,,http://www.redfin.com/CA/San-Francisco/435-Powell-St-94102/home/1824714,San Francisco MLS,421583603,N,Y,37.7887609,-122.4088026
MLS Listing,,Single Family Residential,216 - 216 Montana St,San Francisco,CA,94112,959000,3,1.0,San Francisco,1178,6246,1908,2,814,,Active,,,http://www.redfin.com/CA/San-Francisco/216-Montana-St-94112/home/1736762,San Francisco MLS,421583583,N,Y,37.7167999,-122.4599266
MLS Listing,,Single Family Residential,148 Foerster St,San Francisco,CA,94112,1299999,3,2.0,San Francisco,1200,2495,1929,2,1083,,Active,,,http://www.redfin.com/CA/San-Francisco/148-Foerster-St-94112/home/1139338,San Francisco MLS,421583582,N,Y,37.7297641,-122.4486424
MLS Listing,,Condo/Co-op,1731 Powell St #304,San Francisco,CA,94133,2300000,2,2.5,San Francisco,1426,,2018,2,1613,899,Active,,,http://www.redfin.com/CA/San-Francisco/1731-Powell-St-94133/unit-304/home/169565009,San Francisco MLS,421573296,N,Y,37.8006922,-122.4112871
MLS Listing,,Condo/Co-op,1731 Powell St #302,San Francisco,CA,94133,1250000,1,1.0,San Francisco,911,,2018,2,1372,784,Active,,,http://www.redfin.com/CA/San-Francisco/1731-Powell-St-94133/unit-302/home/148024896,San Francisco MLS,421573035,N,Y,37.8006922,-122.4112871
MLS Listing,,Condo/Co-op,868 Shrader St,San Francisco,CA,94117,1795000,3,1.0,San Francisco,1950,3020,1906,2,921,,Active,August-15-2021 02:00 PM,August-15-2021 04:00 PM,http://www.redfin.com/CA/San-Francisco/868-Shrader-St-94117/home/176068674,San Francisco MLS,421583545,N,Y,37.7667393,-122.4511585
MLS Listing,,Condo/Co-op,1731 Powell St #405,San Francisco,CA,94133,1450000,2,2.5,San Francisco,1245,,2018,2,1165,836,Active,,,http://www.redfin.com/CA/San-Francisco/1731-Powell-St-94133/unit-405/home/160713527,San Francisco MLS,421573047,N,Y,37.8006922,-122.4112871
MLS Listing,,Single Family Residential,1471 37th Ave,San Francisco,CA,94122,1495000,4,2.0,San Francisco,2229,2996,1937,2,671,,Active,August-15-2021 01:00 PM,August-15-2021 04:00 PM,http://www.redfin.com/CA/San-Francisco/1471-37th-Ave-94122/home/963278,San Francisco MLS,421581190,N,Y,37.7595268,-122.4964522
MLS Listing,,Single Family Residential,50 Neptune St,San Francisco,CA,94124,1028000,2,1.0,San Francisco,1250,2495,1907,3,822,,Active,August-14-2021 02:00 PM,August-14-2021 04:00 PM,http://www.redfin.com/CA/San-Francisco/50-Neptune-St-94124/home/753671,San Francisco MLS,421583397,N,Y,37.7306358,-122.3972706
MLS Listing,,Single Family Residential,112 Putnam St,San Francisco,CA,94110,1649000,5,4.0,Bernal Heights,2508,1750,1923,3,657,,Active,,,http://www.redfin.com/CA/San-Francisco/112-Putnam-St-94110/home/1036232,"bridgeMLS, Bay East AOR, or Contra Costa AOR",40962479,N,Y,37.7379525,-122.4111322
MLS Listing,,Single Family Residential,470 Wilde Ave,San Francisco,CA,94134,925888,2,1.0,San Francisco,800,2495,1946,3,1157,,Active,,,http://www.redfin.com/CA/San-Francisco/470-Wilde-Ave-94134/home/995879,BAREIS,421583393,N,Y,37.7178021,-122.4066077
MLS Listing,,Multi-Family (2-4 Unit),2020 - 2022 Laguna St,San Francisco,CA,94115,3120000,2,2.0,San Francisco,3120,2682,1941,3,1000,,Active,,,http://www.redfin.com/CA/San-Francisco/2020-Laguna-St-94115/home/1554745,San Francisco MLS,421581582,N,Y,37.7899398,-122.428686
MLS Listing,,Multi-Family (2-4 Unit),48 - 50 Winfield St,San Francisco,CA,94110,1750000,4,2.0,San Francisco,2280,1751,1961,3,768,,Active,,,http://www.redfin.com/CA/San-Francisco/48-Winfield-St-94110/home/1103896,San Francisco MLS,421582167,N,Y,37.7444761,-122.4175259
MLS Listing,,Vacant Land,285 Edgehill Way,SAN FRANCISCO,CA,94127,485000,,,SAN FRANCISCO,,6272,,3,,,Active,,,http://www.redfin.com/CA/San-Francisco/285-Edgehill-Way-94127/unit-V/home/110057092,MLSListings,ML81857578,N,Y,37.742658,-122.458448
MLS Listing,,Multi-Family (5+ Unit),2906 Van Ness Ave,San Francisco,CA,94109,1950000,0,,San Francisco,3328,2889,1907,3,586,,Active,,,http://www.redfin.com/CA/San-Francisco/2906-Van-Ness-Ave-94109/home/1893456,San Francisco MLS,421583348,N,Y,37.80254,-122.4244531
MLS Listing,,Condo/Co-op,862 Shrader St,San Francisco,CA,94117,1950000,3,2.0,San Francisco,2015,3020,1906,3,968,,Active,August-15-2021 02:00 PM,August-15-2021 04:00 PM,http://www.redfin.com/CA/San-Francisco/862-Shrader-St-94117/home/1920854,San Francisco MLS,421583313,N,Y,37.7667593,-122.4510489
MLS Listing,,Single Family Residential,1374 Gilman Ave,San Francisco,CA,94124,1195000,4,2.0,San Francisco,1923,2500,1950,3,621,,Active,,,http://www.redfin.com/CA/San-Francisco/1374-Gilman-Ave-94124/home/2011462,San Francisco MLS,421579858,N,Y,37.7223546,-122.3950101
MLS Listing,,Condo/Co-op,488 Folsom #4205,San Francisco,CA,94105,3135000,2,2.5,San Francisco,1652,,2019,3,1898,1771,Active,,,http://www.redfin.com/CA/San-Francisco/488-Folsom-St-94105/unit-4205/home/169571693,San Francisco MLS,421583266,N,Y,37.7878074,-122.3943328
MLS Listing,,Condo/Co-op,960 Market St #304,San Francisco,CA,94102,520000,0,1.0,San Francisco,344,,,3,1512,598,Active,,,http://www.redfin.com/CA/San-Francisco/960-Market-St-94102/unit-304/home/176059895,San Francisco MLS,421583259,N,Y,37.7831239,-122.4095552
MLS Listing,,Condo/Co-op,2016 Pacific Ave #204,San Francisco,CA,94109,1675000,2,2.5,San Francisco,,8779,1989,3,,606,Active,August-12-2021 05:00 PM,August-12-2021 06:00 PM,http://www.redfin.com/CA/San-Francisco/2016-Pacific-Ave-94109/unit-204/home/1846211,San Francisco MLS,421580236,N,Y,37.7943768,-122.4289066
MLS Listing,,Single Family Residential,830 46th Ave,San Francisco,CA,94121,1599000,2,3.0,San Francisco,1923,3000,1908,3,832,,Active,August-12-2021 05:30 PM,August-12-2021 06:30 PM,http://www.redfin.com/CA/San-Francisco/830-46th-Ave-94121/home/1839730,San Francisco MLS,421583162,N,Y,37.772802,-122.5065564
MLS Listing,,Condo/Co-op,2000 Ellis St #101,San Francisco,CA,94115,949900,1,1.0,San Francisco,761,8090,2013,3,1248,509,Active,,,http://www.redfin.com/CA/San-Francisco/2000-Ellis-St-94115/unit-101/home/55244539,BAREIS,421579267,N,Y,37.781718,-122.439434
MLS Listing,,Condo/Co-op,420 Stanyan St #7,SAN FRANCISCO,CA,94117,1558000,3,2.0,SAN FRANCISCO,1441,,2003,3,1081,810,Active,August-14-2021 01:30 PM,August-14-2021 04:00 PM,http://www.redfin.com/CA/San-Francisco/420-Stanyan-St-94117/unit-7/home/871389,MLSListings,ML81857502,N,Y,37.7744337,-122.4542758
MLS Listing,,Multi-Family (2-4 Unit),791 - 793 Chenery St,San Francisco,CA,94131,1795000,5,,San Francisco,2676,2500,1922,3,671,,Active,August-12-2021 05:30 PM,August-12-2021 06:30 PM,http://www.redfin.com/CA/San-Francisco/791-Chenery-St-94131/home/1713017,San Francisco MLS,421575969,N,Y,37.7345689,-122.4354885
MLS Listing,,Single Family Residential,518 Oak St,San Francisco,CA,94102,1995000,3,2.0,San Francisco,1519,1994,1900,3,1313,,Active,August-14-2021 11:00 AM,August-14-2021 12:00 PM,http://www.redfin.com/CA/San-Francisco/518-Oak-St-94102/home/1475708,San Francisco MLS,421543907,N,Y,37.7744945,-122.4285203
MLS Listing,,Multi-Family (5+ Unit),2847 Fillmore St,San Francisco,CA,94123,3210000,0,,San Francisco,4835,2495,1900,3,664,,Active,,,http://www.redfin.com/CA/San-Francisco/2847-Fillmore-St-94123/home/1145163,San Francisco MLS,421582612,N,Y,37.7958606,-122.4356428
MLS Listing,,Multi-Family (5+ Unit),5431 California St,San Francisco,CA,94118,4550000,0,,San Francisco,9225,3843,1925,3,493,,Active,,,http://www.redfin.com/CA/San-Francisco/5431-California-St-94118/home/608750,San Francisco MLS,421582532,N,Y,37.7840839,-122.4759358
MLS Listing,,Single Family Residential,865 Duncan St,San Francisco,CA,94131,8000000,7,6.5,San Francisco,5884,5805,1945,3,1360,,Active,,,http://www.redfin.com/CA/San-Francisco/865-Duncan-St-94131/home/1744791,San Francisco MLS,421583152,N,Y,37.745159,-122.4393526
MLS Listing,,Single Family Residential,62 Natick St,San Francisco,CA,94131,1895000,4,2.0,San Francisco,,1750,1906,3,,,Active,August-12-2021 04:30 PM,August-12-2021 06:30 PM,http://www.redfin.com/CA/San-Francisco/62-Natick-St-94131/home/810520,San Francisco MLS,421582194,N,Y,37.7340989,-122.4319608
MLS Listing,,Condo/Co-op,1101 Green St #701,San Francisco,CA,94109,1200000,1,1.0,San Francisco,919,5279,1928,3,1306,1572,Active,,,http://www.redfin.com/CA/San-Francisco/1101-Green-St-94109/unit-701/home/1295491,San Francisco MLS,421582941,N,Y,37.7982681,-122.4174152
MLS Listing,,Single Family Residential,494 44th Ave,San Francisco,CA,94121,1185000,2,1.0,San Francisco,1137,1799,1920,3,1042,,Active,August-12-2021 05:30 PM,August-12-2021 07:00 PM,http://www.redfin.com/CA/San-Francisco/494-44th-Ave-94121/home/611391,San Francisco MLS,421583109,N,Y,37.7793709,-122.5048522
MLS Listing,,Condo/Co-op,41 High St,San Francisco,CA,94114,1395000,3,2.0,San Francisco,1436,1998,1977,4,971,475,Active,August-14-2021 03:00 PM,August-14-2021 05:00 PM,http://www.redfin.com/CA/San-Francisco/41-High-St-94114/home/144063764,San Francisco MLS,421578503,N,Y,37.7485935,-122.4432447
MLS Listing,,Condo/Co-op,1160 Mission St #1106,San Francisco,CA,94103,1295000,2,2.0,San Francisco,1146,,2008,4,1130,961,Active,August-15-2021 01:00 PM,August-15-2021 03:00 PM,http://www.redfin.com/CA/San-Francisco/1160-Mission-St-94103/unit-1106/home/17305366,San Francisco MLS,421583129,N,Y,37.7786972,-122.4126145
MLS Listing,,Condo/Co-op,1501 Greenwich St #204,San Francisco,CA,94123,1195000,2,2.0,San Francisco,953,,2008,4,1254,820,Active,,,http://www.redfin.com/CA/San-Francisco/1501-Greenwich-St-94123/unit-204/home/23424013,San Francisco MLS,421583090,N,Y,37.8002558,-122.4247219
MLS Listing,,Single Family Residential,2575 37th Ave,San Francisco,CA,94116,1299000,4,2.0,San Francisco,1425,2996,1941,4,912,,Active,,,http://www.redfin.com/CA/San-Francisco/2575-37th-Ave-94116/home/1333982,San Francisco MLS,421583023,N,Y,37.7389643,-122.4950382
MLS Listing,,Condo/Co-op,1001 Pine St #203,San Francisco,CA,94109,649000,1,1.0,San Francisco,616,18906,1963,4,1054,575,Active,August-15-2021 02:00 PM,August-15-2021 04:00 PM,http://www.redfin.com/CA/San-Francisco/1001-Pine-St-94109/unit-203/home/978927,San Francisco MLS,421581016,N,Y,37.790348,-122.412568
MLS Listing,,Condo/Co-op,719 Larkin St #203,SAN FRANCISCO,CA,94109,685000,1,1.0,SAN FRANCISCO,619,,2019,5,1107,534,Active,,,http://www.redfin.com/CA/San-Francisco/719-Larkin-St-94109/unit-203/home/172245851,MLSListings,ML81857386,N,Y,37.7845263,-122.4180884
MLS Listing,,Condo/Co-op,333 1st St #205,San Francisco,CA,94105,1095000,1,1.0,San Francisco,778,,2004,5,1407,854,Active,,,http://www.redfin.com/CA/San-Francisco/333-1st-St-94105/unit-205/home/25723435,San Francisco MLS,421575666,N,Y,37.7872383,-122.3940289
MLS Listing,,Condo/Co-op,45 Bartlett St #502,San Francisco,CA,94110,975000,2,1.0,San Francisco,817,,2014,5,1193,690,Active,,,http://www.redfin.com/CA/San-Francisco/45-Bartlett-St-94110/unit-502/home/109315249,San Francisco MLS,421582950,N,Y,37.7558162,-122.4197494
MLS Listing,,Condo/Co-op,401 Harrison St Unit 13B,San Francisco,CA,94105,1650000,2,2.0,San Francisco,1312,,2014,5,1258,1368,Active,,,http://www.redfin.com/CA/San-Francisco/401-Harrison-St-94105/unit-13B/home/144017354,San Francisco MLS,421582951,N,Y,37.7864989,-122.3921487
MLS Listing,,Single Family Residential,280 Williams Ave Unit vesta,San Francisco,CA,94124,1080000,3,3.0,San Francisco,1500,2500,1988,5,720,,Active,,,http://www.redfin.com/CA/San-Francisco/280-Williams-Ave-94124/unit-vesta/home/176037880,San Francisco MLS,421582952,N,Y,37.730317,-122.3985207
MLS Listing,,Condo/Co-op,765 Market St Unit 22C,San Francisco,CA,94103,1175000,1,1.0,Soma,792,,2001,5,1484,2148,Active,,,http://www.redfin.com/CA/San-Francisco/765-Market-St-94103/unit-22C/home/1482232,"bridgeMLS, Bay East AOR, or Contra Costa AOR",40962306,N,Y,37.786097,-122.4041629
MLS Listing,,Single Family Residential,300 Baltimore Way,San Francisco,CA,94112,1249000,5,2.0,San Francisco,1671,2996,1960,5,747,,Active,,,http://www.redfin.com/CA/San-Francisco/300-Baltimore-Way-94112/home/799615,San Francisco MLS,421580810,N,Y,37.7086549,-122.4371029
MLS Listing,,Condo/Co-op,301 Mission St Ph 1,San Francisco,CA,94105,1899000,2,2.0,San Francisco,1728,50667,2009,5,1099,2888,Active,,,http://www.redfin.com/CA/San-Francisco/301-Mission-St-94105/unit-1/home/40142651,San Francisco MLS,421578272,N,Y,37.7903824,-122.3961531
MLS Listing,,Single Family Residential,3634 Quintara St,San Francisco,CA,94116,1190000,2,2.0,San Francisco,1187,2495,1942,5,1003,,Active,,,http://www.redfin.com/CA/San-Francisco/3634-Quintara-St-94116/home/2033891,BAREIS,421581721,N,Y,37.7475657,-122.5045869
MLS Listing,,Condo/Co-op,778 2nd Ave,San Francisco,CA,94118,1495000,2,1.5,San Francisco,1271,2250,1910,5,1176,275,Active,August-15-2021 02:00 PM,August-15-2021 04:00 PM,http://www.redfin.com/CA/San-Francisco/778-2nd-Ave-94118/home/857900,San Francisco MLS,421582773,N,Y,37.77453,-122.459235
MLS Listing,,Multi-Family (2-4 Unit),649 - 651 Francisco St,San Francisco,CA,94133,4800000,5,4.0,San Francisco,4110,1023,1932,6,1168,,Active,,,http://www.redfin.com/CA/San-Francisco/649-Francisco-St-94133/home/171837326,San Francisco MLS,421582853,N,Y,37.8043641,-122.4161452
MLS Listing,,Single Family Residential,220 Hermann St,San Francisco,CA,94117,1750000,3,2.0,San Francisco,1874,1392,1900,6,934,,Active,August-14-2021 02:00 PM,August-14-2021 04:00 PM,http://www.redfin.com/CA/San-Francisco/220-Hermann-St-94117/home/2030647,San Francisco MLS,421582854,N,Y,37.7705731,-122.4288995
MLS Listing,,Condo/Co-op,274 Page St,San Francisco,CA,94102,1498000,2,2.0,San Francisco,,3300,1884,6,,314,Active,August-15-2021 02:00 PM,August-15-2021 04:00 PM,http://www.redfin.com/CA/San-Francisco/274-Page-St-94102/home/1804372,San Francisco MLS,421582814,N,Y,37.773916,-122.425319
MLS Listing,,Single Family Residential,217 Yale St,San Francisco,CA,94134,1299000,4,3.0,San Francisco,,2375,1974,6,,,Active,August-12-2021 04:00 PM,August-12-2021 06:00 PM,http://www.redfin.com/CA/San-Francisco/217-Yale-St-94134/home/1194166,San Francisco MLS,421581284,N,Y,37.7264324,-122.4171055
MLS Listing,,Condo/Co-op,442 23rd Ave #4,San Francisco,CA,94121,749000,2,1.5,San Francisco,839,3000,1971,6,893,200,Active,August-14-2021 12:00 PM,August-14-2021 03:00 PM,http://www.redfin.com/CA/San-Francisco/442-23rd-Ave-94121/unit-4/home/170557644,San Francisco MLS,421582822,N,Y,37.779314,-122.482197
MLS Listing,,Single Family Residential,83 Crane St,San Francisco,CA,94124,1050000,4,2.5,Bayview,1375,2495,1962,6,764,,Active,,,http://www.redfin.com/CA/San-Francisco/83-Crane-St-94124/home/1074787,"bridgeMLS, Bay East AOR, or Contra Costa AOR",40962238,N,Y,37.721777,-122.3995496
MLS Listing,,Multi-Family (2-4 Unit),517 - 519 Lyon St,San Francisco,CA,94117,2660000,5,3.0,San Francisco,2720,2652,1900,6,978,,Active,,,http://www.redfin.com/CA/San-Francisco/517-Lyon-St-94117/home/1756277,San Francisco MLS,421582793,N,Y,37.7757996,-122.4433528
MLS Listing,,Condo/Co-op,1460 Webster St #1,SAN FRANCISCO,CA,94115,588500,2,1.0,SAN FRANCISCO,850,127539,1963,6,692,761,Active,August-14-2021 01:00 PM,August-14-2021 04:00 PM,http://www.redfin.com/CA/San-Francisco/1460-Webster-St-94115/unit-1/home/12401247,MLSListings,ML81857298,N,Y,37.7841478,-122.4308074
MLS Listing,,Condo/Co-op,325 Berry St #109,San Francisco,CA,94158,1449000,2,2.5,San Francisco,1280,,2007,6,1132,755,Active,August-14-2021 11:00 AM,August-14-2021 01:00 PM,http://www.redfin.com/CA/San-Francisco/325-Berry-St-94158/unit-109/home/17305301,San Francisco MLS,421568789,N,Y,37.773394,-122.3957106
MLS Listing,,Single Family Residential,2362 46th Ave,San Francisco,CA,94116,1095000,3,2.0,San Francisco,1403,2996,1946,6,780,,Active,August-15-2021 02:00 PM,August-15-2021 04:00 PM,http://www.redfin.com/CA/San-Francisco/2362-46th-Ave-94116/home/1081749,San Francisco MLS,421580287,N,Y,37.7424879,-122.5044423
MLS Listing,,Condo/Co-op,489A 30th St Uppr Unit,SAN FRANCISCO,CA,94131,2499888,3,3.0,SAN FRANCISCO,2060,2474,2021,6,1214,,Active,,,http://www.redfin.com/CA/San-Francisco/489-30th-St-94131/unit-Unit/home/176021643,MLSListings,ML81857264,N,Y,37.741698,-122.4306881
MLS Listing,,Condo/Co-op,170 King St #402,San Francisco,CA,94107,1279000,2,2.0,San Francisco,,,2007,6,,800,Active,August-14-2021 11:00 AM,August-14-2021 01:00 PM,http://www.redfin.com/CA/San-Francisco/170-King-St-94107/unit-402/home/17305519,San Francisco MLS,421575616,N,Y,37.7787673,-122.3915505
MLS Listing,,Single Family Residential,489 30th St,SAN FRANCISCO,CA,94131,4699888,6,5.0,SAN FRANCISCO,4130,2474,2021,6,1138,,Active,,,http://www.redfin.com/CA/San-Francisco/489-30th-St-94131/home/1415303,MLSListings,ML81857256,N,Y,37.741698,-122.4306881
MLS Listing,,Multi-Family (2-4 Unit),391 - 393 Crestmont Dr,San Francisco,CA,94131,2195000,5,4.5,San Francisco,3412,5589,1978,6,643,,Active,,,http://www.redfin.com/CA/San-Francisco/391-Crestmont-Dr-94131/home/671495,San Francisco MLS,421582656,N,Y,37.7584524,-122.4610401
MLS Listing,,Single Family Residential,161 Anderson St,San Francisco,CA,94110,1595000,3,2.0,San Francisco,1429,1750,1908,6,1116,,Active,August-14-2021 11:00 AM,August-14-2021 01:00 PM,http://www.redfin.com/CA/San-Francisco/161-Anderson-St-94110/home/1132801,San Francisco MLS,421579723,N,Y,37.7408046,-122.4149706
MLS Listing,,Single Family Residential,3901 - 3901 1/2 Folsom St,San Francisco,CA,94110,1439000,3,2.0,San Francisco,2096,1751,1900,6,687,,Active,August-14-2021 02:00 PM,August-14-2021 04:00 PM,http://www.redfin.com/CA/San-Francisco/3657-1-2-Folsom-St-94110/home/176019046,San Francisco MLS,421581535,N,Y,37.7407178,-122.4131462
MLS Listing,,Condo/Co-op,2878 Sacramento St #6,San Francisco,CA,94115,950000,1,1.0,San Francisco,,,,6,,400,Active,August-14-2021 12:00 PM,August-14-2021 02:00 PM,http://www.redfin.com/CA/San-Francisco/2878-Sacramento-St-94115/unit-6/home/1963879,San Francisco MLS,421574446,N,Y,37.7892369,-122.4402289
MLS Listing,,Single Family Residential,599 24th Ave,San Francisco,CA,94121,1850000,3,2.0,San Francisco,2120,2060,1914,6,873,,Active,,,http://www.redfin.com/CA/San-Francisco/599-24th-Ave-94121/home/1888738,San Francisco MLS,421580131,N,Y,37.7783469,-122.483799
MLS Listing,,Single Family Residential,3009 Webster St,San Francisco,CA,94123,3750000,4,2.5,San Francisco,2774,2610,1900,6,1352,,Active,,,http://www.redfin.com/CA/San-Francisco/3009-Webster-St-94123/home/562464,San Francisco MLS,421582562,N,Y,37.798412,-122.434344
MLS Listing,,Condo/Co-op,3943 26th St,SAN FRANCISCO,CA,94131,1198000,2,1.0,SAN FRANCISCO,881,,1900,6,1360,271,Active,,,http://www.redfin.com/CA/San-Francisco/3943-26th-St-94131/home/21966292,MLSListings,ML81857180,N,Y,37.748194,-122.428116
MLS Listing,,Condo/Co-op,2160 Hayes St #3,San Francisco,CA,94117,2495000,3,3.0,San Francisco,1701,3725,2021,6,1467,565,Active,,,http://www.redfin.com/CA/San-Francisco/2160-Hayes-St-94117/unit-3/home/176017312,San Francisco MLS,421582356,N,Y,37.7733835,-122.4519189
MLS Listing,,Condo/Co-op,2160 Hayes St #2,San Francisco,CA,94117,2025000,3,3.0,San Francisco,1623,3725,2021,6,1248,565,Active,,,http://www.redfin.com/CA/San-Francisco/2160-Hayes-St-94117/unit-2/home/176016945,San Francisco MLS,421582358,N,Y,37.7733835,-122.4519189
MLS Listing,,Condo/Co-op,4617 California St,SAN FRANCISCO,CA,94118,999000,2,1.0,SAN FRANCISCO,1313,,1910,6,761,332,Active,August-14-2021 12:00 PM,August-14-2021 02:00 PM,http://www.redfin.com/CA/San-Francisco/4617-California-St-94118/home/932210,MLSListings,ML81857166,N,Y,37.784519,-122.4670545
MLS Listing,,Condo/Co-op,413 Lyon St Unit A,San Francisco,CA,94117,1695000,2,2.0,San Francisco,1390,2809,1900,6,1219,,Active,,,http://www.redfin.com/CA/San-Francisco/413-Lyon-St-94117/unit-A/home/176016776,San Francisco MLS,421580308,N,Y,37.774804,-122.4431188
MLS Listing,,Condo/Co-op,413 Lyon St,San Francisco,CA,94117,2895000,4,3.5,San Francisco,2450,2809,1900,6,1182,,Active,,,http://www.redfin.com/CA/San-Francisco/413-Lyon-St-94117/home/1492342,San Francisco MLS,421576150,N,Y,37.774804,-122.4431188
MLS Listing,,Multi-Family (2-4 Unit),648 - 652 South Van Ness Ave,San Francisco,CA,94110,2095000,6,1.0,San Francisco,4275,3062,1911,6,490,,Active,,,http://www.redfin.com/CA/San-Francisco/648-S-Van-Ness-Ave-94110/home/709279,San Francisco MLS,421582355,N,Y,37.762706,-122.4176053
MLS Listing,,Single Family Residential,208 Fair Oaks St,San Francisco,CA,94110,4600000,8,,San Francisco,4463,3643,1900,6,1031,,Active,August-12-2021 12:00 PM,August-12-2021 02:00 PM,http://www.redfin.com/CA/San-Francisco/208-Fair-Oaks-St-94110/home/1292427,San Francisco MLS,421582500,N,Y,37.7531053,-122.4244043
MLS Listing,,Condo/Co-op,2779 Folsom St #5,San Francisco,CA,94110,2495000,3,3.5,San Francisco,2292,8260,,6,1089,708,Active,,,http://www.redfin.com/CA/San-Francisco/2779-Folsom-St-94110/unit-5/home/176015649,San Francisco MLS,421582494,N,Y,37.752965,-122.413713
MLS Listing,,Condo/Co-op,1974 Bush St,San Francisco,CA,94115,2495000,3,2.5,San Francisco,2231,4125,1900,6,1118,,Active,,,http://www.redfin.com/CA/San-Francisco/1974-Bush-St-94115/home/12395537,San Francisco MLS,421577927,N,Y,37.787777,-122.429784
MLS Listing,,Condo/Co-op,8 Buchanan St #209,San Francisco,CA,94102,849000,1,1.0,San Francisco,721,,2014,6,1178,524,Active,,,http://www.redfin.com/CA/San-Francisco/8-Buchanan-St-94102/unit-209/home/110051636,"bridgeMLS, Bay East AOR, or Contra Costa AOR",40962097,N,Y,37.7699896,-122.426517
MLS Listing,,Condo/Co-op,360 10th St #2,San Francisco,CA,94103,1095000,1,2.0,San Francisco,1324,2724,2001,6,827,757,Active,,,http://www.redfin.com/CA/San-Francisco/360-10th-St-94103/unit-2/home/856912,San Francisco MLS,421580128,N,Y,37.7718639,-122.4121366
MLS Listing,,Single Family Residential,3224 Folsom St,San Francisco,CA,94110,1695000,2,2.0,San Francisco,1499,2000,1900,6,1131,,Active,August-12-2021 04:30 PM,August-12-2021 05:30 PM,http://www.redfin.com/CA/San-Francisco/3224-Folsom-St-94110/home/756119,San Francisco MLS,421581684,N,Y,37.7465786,-122.4137539
MLS Listing,,Condo/Co-op,2171 Sacramento St #8,San Francisco,CA,94109,749000,1,1.0,San Francisco,684,5538,1970,6,1095,612,Active,August-14-2021 01:00 PM,August-14-2021 04:00 PM,http://www.redfin.com/CA/San-Francisco/2171-Sacramento-St-94109/unit-8/home/570523,San Francisco MLS,421582248,N,Y,37.7903955,-122.4286044
MLS Listing,,Condo/Co-op,2170 Harrison St #8,San Francisco,CA,94110,1195000,2,1.5,San Francisco,1485,,1997,6,805,596,Active,,,http://www.redfin.com/CA/San-Francisco/2170-Harrison-St-94110/unit-8/home/12395686,San Francisco MLS,421581990,N,Y,37.7625531,-122.413057
MLS Listing,,Condo/Co-op,425 1st St #1505,San Francisco,CA,94105,839000,1,1.0,San Francisco,710,56024,2008,6,1182,1066,Active,,,http://www.redfin.com/CA/San-Francisco/425-1st-St-94105/unit-1505/home/17304946,San Francisco MLS,421582258,N,Y,37.785708,-122.392204
MLS Listing,,Condo/Co-op,45 Fountain St,San Francisco,CA,94114,999000,2,1.0,San Francisco,,3125,1961,6,,,Active,August-14-2021 12:00 PM,August-14-2021 02:00 PM,http://www.redfin.com/CA/San-Francisco/45-Fountain-St-94114/home/28938889,San Francisco MLS,421582415,N,Y,37.7501548,-122.4413055
MLS Listing,,Condo/Co-op,280 Spear St Unit 18D,San Francisco,CA,94105,1720000,2,2.0,San Francisco,1072,47916,,6,1604,1181,Active,,,http://www.redfin.com/CA/San-Francisco/280-Spear-St-94105/unit-18D/home/176013633,San Francisco MLS,421582467,N,Y,37.7904356,-122.3918209
MLS Listing,,Single Family Residential,1901 32nd Ave,San Francisco,CA,94116,1098000,2,1.0,San Francisco,825,1437,1942,6,1331,,Active,,,http://www.redfin.com/CA/San-Francisco/1901-32nd-Ave-94116/home/1889283,San Francisco MLS,421578513,N,Y,37.7516137,-122.4904713
MLS Listing,,Condo/Co-op,260 King St #703,San Francisco,CA,94107,1295000,2,2.0,San Francisco,1286,213232,2004,6,1007,944,Active,,,http://www.redfin.com/CA/San-Francisco/260-King-St-94107/unit-703/home/22889383,San Francisco MLS,421566500,N,Y,37.7776624,-122.3938672
MLS Listing,,Condo/Co-op,1550 Jackson St #1,San Francisco,CA,94109,748000,1,1.0,San Francisco,633,3192,1912,6,1182,275,Active,August-15-2021 12:00 PM,August-15-2021 03:00 PM,http://www.redfin.com/CA/San-Francisco/1550-Jackson-St-94109/unit-1/home/854182,San Francisco MLS,421573098,N,Y,37.794454,-122.420649
MLS Listing,,Single Family Residential,110 Castenada Ave,SAN FRANCISCO,CA,94116,2088000,4,3.0,SAN FRANCISCO,2354,3724,1961,6,887,57,Active,August-14-2021 01:00 PM,August-14-2021 04:00 PM,http://www.redfin.com/CA/San-Francisco/110-Castenada-Ave-94116/home/680724,MLSListings,ML81857096,N,Y,37.7494035,-122.4622706
MLS Listing,,Multi-Family (5+ Unit),620 Eddy St,San Francisco,CA,94109,6959000,2,,San Francisco,17546,6300,1910,6,397,,Active,,,http://www.redfin.com/CA/San-Francisco/620-Eddy-St-94109/home/577126,San Francisco MLS,421580413,N,Y,37.7834871,-122.4180833
MLS Listing,,Multi-Family (5+ Unit),237 Leavenworth St,San Francisco,CA,94102,5200000,0,,San Francisco,11960,3781,1922,6,435,,Active,,,http://www.redfin.com/CA/San-Francisco/237-Leavenworth-St-94102/home/555000,San Francisco MLS,421580404,N,Y,37.7832608,-122.4145392
MLS Listing,,Condo/Co-op,3035 Judah St,San Francisco,CA,94122,995000,2,1.0,San Francisco,947,2490,1945,6,1051,250,Active,August-15-2021 02:00 PM,August-15-2021 04:00 PM,http://www.redfin.com/CA/San-Francisco/3035-Judah-St-94122/home/45441939,San Francisco MLS,421582401,N,Y,37.7606767,-122.4947365
MLS Listing,,Condo/Co-op,1483 Sutter St #419,San Francisco,CA,94109,650000,1,1.0,San Francisco,758,48636,1993,6,858,756,Active,August-15-2021 11:00 AM,August-15-2021 01:00 PM,http://www.redfin.com/CA/San-Francisco/1483-Sutter-St-94109/unit-419/home/1991813,San Francisco MLS,421578734,N,Y,37.7869544,-122.4241886
MLS Listing,,Single Family Residential,4229 Moraga St,San Francisco,CA,94122,1995000,4,3.0,San Francisco,2444,1873,1947,6,816,,Active,August-12-2021 05:30 PM,August-12-2021 07:00 PM,http://www.redfin.com/CA/San-Francisco/4229-Moraga-St-94122/home/1992630,San Francisco MLS,421577148,N,Y,37.7545404,-122.5082309
MLS Listing,,Condo/Co-op,38 Bryant St #905,San Francisco,CA,94105,875000,1,1.0,San Francisco,722,32017,1994,7,1212,636,Active,,,http://www.redfin.com/CA/San-Francisco/38-Bryant-St-94105/unit-905/home/2019404,San Francisco MLS,421582320,N,Y,37.7873536,-122.3888066
MLS Listing,,Single Family Residential,79 Karen Ct,San Francisco,CA,94134,1250000,4,3.0,San Francisco,1850,1560,2002,7,,,Active,,,http://www.redfin.com/CA/San-Francisco/79-Karen-Ct-94134/home/1689831,MetroList,421581556,N,Y,37.7232853,-122.406829
MLS Listing,,Single Family Residential,3724 Moraga St,San Francisco,CA,94122,1195000,3,2.0,San Francisco,1069,2495,1941,7,1118,,Active,,,http://www.redfin.com/CA/San-Francisco/3724-Moraga-St-94122/home/1270733,San Francisco MLS,421582327,N,Y,37.7551446,-122.5028186
MLS Listing,,Condo/Co-op,1345 16th Ave #10,San Francisco,CA,94122,799000,2,1.0,San Francisco,911,6000,1924,7,877,375,Active,August-15-2021 12:00 PM,August-15-2021 02:00 PM,http://www.redfin.com/CA/San-Francisco/1345-16th-Ave-94122/unit-10/home/28441464,San Francisco MLS,421582319,N,Y,37.7628409,-122.4741597
MLS Listing,,Single Family Residential,1358 28th Ave,SAN FRANCISCO,CA,94122,1188000,2,1.0,SAN FRANCISCO,1350,3000,1924,7,880,,Active,,,http://www.redfin.com/CA/San-Francisco/1358-28th-Ave-94122/home/1137661,MLSListings,ML81857073,N,Y,37.7620572,-122.4864045
MLS Listing,,Condo/Co-op,3448 Balboa St #2,San Francisco,CA,94121,1295000,3,2.0,San Francisco,1480,2466,2011,7,875,308,Active,August-12-2021 04:00 PM,August-12-2021 06:00 PM,http://www.redfin.com/CA/San-Francisco/3448-Balboa-St-94121/unit-2/home/69371325,San Francisco MLS,421580306,N,Y,37.7759369,-122.495968
MLS Listing,,Condo/Co-op,785 Golden Gate Ave #403,San Francisco,CA,94102,699000,1,1.0,San Francisco,,6900,1983,7,,480,Active,August-15-2021 02:00 PM,August-15-2021 04:00 PM,http://www.redfin.com/CA/San-Francisco/785-Golden-Gate-Ave-94102/unit-403/home/1136033,San Francisco MLS,421572274,N,Y,37.7803482,-122.423456
MLS Listing,,Condo/Co-op,1450 Franklin St #606,San Francisco,CA,94109,1550000,2,2.0,San Francisco,1273,12318,2017,7,1218,1027,Active,August-12-2021 05:30 PM,August-12-2021 06:30 PM,http://www.redfin.com/CA/San-Francisco/1450-Franklin-St-94109/unit-606/home/109297686,San Francisco MLS,421580197,N,Y,37.7881104,-122.4232776
MLS Listing,,Single Family Residential,571 Myra Way,San Francisco,CA,94127,2180000,4,4.5,San Francisco,1963,2169,1949,7,1111,,Active,August-14-2021 02:00 PM,August-14-2021 04:00 PM,http://www.redfin.com/CA/San-Francisco/571-Myra-Way-94127/home/2011024,San Francisco MLS,421582012,N,Y,37.7386041,-122.45076
MLS Listing,,Condo/Co-op,851 Van Ness Ave #408,San Francisco,CA,94109,975000,2,2.0,San Francisco,1434,13170,2002,7,680,758,Active,,,http://www.redfin.com/CA/San-Francisco/851-Van-Ness-Ave-94109/unit-408/home/1234008,San Francisco MLS,421578432,N,Y,37.7835494,-122.4212867
MLS Listing,,Single Family Residential,832 Florida St,San Francisco,CA,94110,999988,4,2.0,Mission District,1920,,1900,7,521,,Active,,,http://www.redfin.com/CA/San-Francisco/832-Florida-St-94110/home/729949,"bridgeMLS, Bay East AOR, or Contra Costa AOR",40961978,N,Y,37.7584984,-122.4108964
MLS Listing,,Condo/Co-op,555 Golden Gate Ave Unit 6C,San Francisco,CA,94102,898000,2,1.0,San Francisco,834,,2021,7,1077,613,Active,,,http://www.redfin.com/CA/San-Francisco/555-Golden-Gate-Ave-94102/unit-6C/home/175990478,San Francisco MLS,421582249,N,Y,37.7808655,-122.4196054
MLS Listing,,Condo/Co-op,54 Woodward St Unit B,San Francisco,CA,94103,479000,1,1.0,San Francisco,399,1625,1907,7,1201,260,Active,August-15-2021 11:00 AM,August-15-2021 01:00 PM,http://www.redfin.com/CA/San-Francisco/54-Woodward-St-94103/unit-B/home/45078962,San Francisco MLS,421581835,N,Y,37.769004,-122.421035
MLS Listing,,Condo/Co-op,555 Golden Gate Ave Unit 6I,San Francisco,CA,94102,729000,1,1.0,San Francisco,670,,2021,7,1088,573,Active,,,http://www.redfin.com/CA/San-Francisco/555-Golden-Gate-Ave-94102/unit-6I/home/175990325,San Francisco MLS,421582238,N,Y,37.7808655,-122.4196054
MLS Listing,,Single Family Residential,2 Marvel Ct,San Francisco,CA,94121,1750000,3,3.0,San Francisco,1959,2548,1957,7,893,,Active,,,http://www.redfin.com/CA/San-Francisco/2-Marvel-Ct-94121/home/1427263,San Francisco MLS,421581762,N,Y,37.7830712,-122.4926746
MLS Listing,,Single Family Residential,113 Hoffman Ave,San Francisco,CA,94114,1750000,1,1.5,San Francisco,,2250,1900,7,,,Active,August-12-2021 05:30 PM,August-12-2021 06:30 PM,http://www.redfin.com/CA/San-Francisco/113-Hoffman-94114/home/1993131,San Francisco MLS,421570849,N,Y,37.7528487,-122.4405863
MLS Listing,,Vacant Land,210 Dock St,San Francisco,CA,94124,8000,0,,San Francisco,,5000,,7,,,Active,,,http://www.redfin.com/CA/San-Francisco/210-Dock-ST-94124/home/175988585,San Francisco MLS,421582127,N,Y,37.7304167,-122.384425
MLS Listing,,Vacant Land,111 Fitzgerald Ave,San Francisco,CA,94124,8000,0,,San Francisco,,5000,,7,,,Active,,,http://www.redfin.com/CA/San-Francisco/111-Fitzgerald-Ave-94124/home/110062857,San Francisco MLS,421582133,N,Y,37.7093514,-122.3713527
MLS Listing,,Vacant Land,681 Donner Ave,San Francisco,CA,94124,8000,0,,San Francisco,,5000,,7,,,Active,,,http://www.redfin.com/CA/San-Francisco/681-Donner-Ave-94124/home/110062822,San Francisco MLS,421582104,N,Y,37.714343,-122.376814
MLS Listing,,Vacant Land,181 Fitzgerald Ave,San Francisco,CA,94124,8000,0,,San Francisco,,5000,,7,,,Active,,,http://www.redfin.com/CA/San-Francisco/181-Fitzgerald-Ave-94124/home/110062910,San Francisco MLS,421582105,N,Y,37.7098306,-122.3721964
MLS Listing,,Vacant Land,680 Egbert Ave,San Francisco,CA,94124,8000,0,,San Francisco,,5000,,7,,,Active,,,http://www.redfin.com/CA/San-Francisco/680-Egbert-Ave-94124/home/110063046,San Francisco MLS,421581549,N,Y,37.7141189,-122.377015
MLS Listing,,Condo/Co-op,488 Folsom St #3703,San Francisco,CA,94105,1695000,1,1.5,San Francisco,916,,2019,7,1850,1574,Active,,,http://www.redfin.com/CA/San-Francisco/488-Folsom-St-94105/unit-3703/home/166736707,San Francisco MLS,421582176,N,Y,37.7878074,-122.3943328
MLS Listing,,Condo/Co-op,488 Folsom St #4203,San Francisco,CA,94105,1775000,1,1.5,San Francisco,921,,2019,7,1927,1574,Active,,,http://www.redfin.com/CA/San-Francisco/488-Folsom-St-94105/unit-4203/home/169571691,San Francisco MLS,421582171,N,Y,37.7878074,-122.3943328
MLS Listing,,Single Family Residential,251 - 253 Collingwood St,San Francisco,CA,94114,5495000,5,4.0,San Francisco,4015,3025,1891,7,1369,,Active,August-15-2021 01:00 PM,August-15-2021 02:30 PM,http://www.redfin.com/CA/San-Francisco/251-Collingwood-St-94114/home/1351579,San Francisco MLS,421579758,N,Y,37.7583671,-122.4355862
MLS Listing,,Condo/Co-op,233 Franklin St #208,San Francisco,CA,94102,999000,1,1.0,San Francisco,780,13254,2010,7,1281,655,Active,August-14-2021 12:00 PM,August-14-2021 01:30 PM,http://www.redfin.com/CA/San-Francisco/233-Franklin-St-94102/unit-208/home/40138587,San Francisco MLS,421581174,N,Y,37.7768306,-122.42153
MLS Listing,,Condo/Co-op,1701 Jackson St #206,San Francisco,CA,94109,1279000,2,2.0,San Francisco,1108,38432,2001,7,1154,852,Active,August-14-2021 11:00 AM,August-14-2021 01:00 PM,http://www.redfin.com/CA/San-Francisco/1701-Jackson-St-94109/unit-206/home/1870863,San Francisco MLS,421582142,N,Y,37.7936915,-122.4234902
MLS Listing,,Condo/Co-op,815 Tennessee St #303,San Francisco,CA,94107,1799000,3,2.0,San Francisco,,19971,2018,7,,747,Active,,,http://www.redfin.com/CA/San-Francisco/815-Tennessee-St-94107/unit-303/home/145300337,San Francisco MLS,421582102,N,Y,37.7614764,-122.3892934
MLS Listing,,Condo/Co-op,650 Delancey St #112,San Francisco,CA,94107,2350000,2,2.0,San Francisco,1851,61922,1996,7,1270,731,Active,August-15-2021 12:00 PM,August-15-2021 02:00 PM,http://www.redfin.com/CA/San-Francisco/650-Delancey-St-94107/unit-112/home/12396310,San Francisco MLS,421582103,N,Y,37.7828055,-122.3896538
MLS Listing,,Condo/Co-op,88 King St #1219,San Francisco,CA,94107,1649000,2,2.0,San Francisco,1115,82157,2000,7,1479,1169,Active,August-14-2021 01:00 PM,August-14-2021 03:00 PM,http://www.redfin.com/CA/San-Francisco/88-King-St-94107/unit-1219/home/12397359,San Francisco MLS,421579786,N,Y,37.7806744,-122.3892218
MLS Listing,,Single Family Residential,326 Madrid St,San Francisco,CA,94112,699000,2,1.0,San Francisco,,2500,1907,7,,,Active,August-15-2021 02:00 PM,August-15-2021 04:00 PM,http://www.redfin.com/CA/San-Francisco/326-Madrid-St-94112/home/1835789,San Francisco MLS,421579147,N,Y,37.7243721,-122.4309867
MLS Listing,,Single Family Residential,1346 Eddy St,San Francisco,CA,94115,1599000,3,2.0,San Francisco,,,2007,7,,,Active,,,http://www.redfin.com/CA/San-Francisco/1346-Eddy-St-94115/home/17305978,San Francisco MLS,421572672,N,Y,37.7818688,-122.4298723
MLS Listing,,Single Family Residential,1997 Alemany Blvd,San Francisco,CA,94112,999999,4,3.0,San Francisco,1484,2556,1957,7,674,,Active,August-12-2021 05:00 PM,August-12-2021 07:00 PM,http://www.redfin.com/CA/San-Francisco/1997-Alemany-Blvd-94112/home/1363670,BAREIS,421580422,N,Y,37.7201018,-122.4392703
MLS Listing,,Single Family Residential,2531 Larkin St,San Francisco,CA,94109,6295000,4,5.0,San Francisco,3877,2648,1900,7,1624,,Active,August-15-2021 02:00 PM,August-15-2021 04:00 PM,http://www.redfin.com/CA/San-Francisco/2531-Larkin-St-94109/home/1947792,San Francisco MLS,421581726,N,Y,37.8012913,-122.4214615
MLS Listing,,Vacant Land,1326 Stanyan St,San Francisco,CA,94114,499000,0,,San Francisco,,2796,,7,,,Active,,,http://www.redfin.com/CA/San-Francisco/1326-Stanyan-St-94114/home/110056909,San Francisco MLS,421578867,N,Y,37.759108,-122.451162
MLS Listing,,Single Family Residential,1758 18th Ave,San Francisco,CA,94122,1795000,4,4.0,San Francisco,2398,2996,1937,7,749,,Active,August-15-2021 02:00 PM,August-15-2021 04:00 PM,http://www.redfin.com/CA/San-Francisco/1758-18th-Ave-94122/home/1173949,San Francisco MLS,421581711,N,Y,37.7550607,-122.4751729
MLS Listing,,Single Family Residential,177 Belgrave Ave,San Francisco,CA,94117,2995000,3,2.0,San Francisco,1920,6059,1973,7,1560,,Active,August-15-2021 11:00 AM,August-15-2021 01:00 PM,http://www.redfin.com/CA/San-Francisco/177-Belgrave-Ave-94117/home/1574519,San Francisco MLS,421578537,N,Y,37.7592887,-122.4510807
MLS Listing,,Multi-Family (2-4 Unit),4145 - 4151 Lawton St,San Francisco,CA,94122,1695000,4,4.0,San Francisco,3097,4499,1954,7,547,,Active,,,http://www.redfin.com/CA/San-Francisco/4145-Lawton-St-94122/home/1279519,San Francisco MLS,421580768,N,Y,37.7564528,-122.5074654
MLS Listing,,Condo/Co-op,445 Baker St Unit A,San Francisco,CA,94117,1175000,2,1.0,San Francisco,1106,2500,1900,7,1062,320,Active,August-12-2021 06:00 PM,August-12-2021 07:00 PM,http://www.redfin.com/CA/San-Francisco/445-Baker-St-94117/unit-A/home/2015877,San Francisco MLS,421577874,N,Y,37.775165,-122.441582
MLS Listing,,Single Family Residential,29 Harold Ave,San Francisco,CA,94112,1195000,2,1.5,San Francisco,1622,2809,1910,7,737,,Active,August-15-2021 11:00 AM,August-15-2021 01:00 PM,http://www.redfin.com/CA/San-Francisco/29-Harold-Ave-94112/home/1512065,San Francisco MLS,421579606,N,Y,37.7192575,-122.4533033
MLS Listing,,Condo/Co-op,200 Townsend St #2,San Francisco,CA,94107,855000,0,,San Francisco,877,15768,2003,7,975,658,Active,August-15-2021 02:00 PM,August-15-2021 04:00 PM,http://www.redfin.com/CA/San-Francisco/200-Townsend-St-94107/unit-2/home/12399483,San Francisco MLS,421581513,N,Y,37.7789208,-122.3932323
MLS Listing,,Single Family Residential,85 Cerritos Ave,San Francisco,CA,94127,1695000,3,3.0,San Francisco,2399,4199,1952,7,707,3,Active,,,http://www.redfin.com/CA/San-Francisco/85-Cerritos-Ave-94127/home/1647695,San Francisco MLS,421579668,N,Y,37.7261715,-122.468617
MLS Listing,,Condo/Co-op,300 Beale St #504,San Francisco,CA,94105,799000,1,1.0,San Francisco,754,35461,1937,7,1060,723,Active,August-14-2021 02:00 PM,August-14-2021 04:00 PM,http://www.redfin.com/CA/San-Francisco/300-Beale-St-94105/unit-504/home/12395851,San Francisco MLS,421580953,N,Y,37.7881762,-122.3925217
MLS Listing,,Single Family Residential,2924 Griffith St,San Francisco,CA,94124,729000,3,1.0,San Francisco,966,4996,1914,7,755,,Active,August-12-2021 05:30 PM,August-12-2021 06:30 PM,http://www.redfin.com/CA/San-Francisco/2924-Griffith-St-94124/home/1534105,San Francisco MLS,421580297,N,Y,37.7167063,-122.3898399
MLS Listing,,Condo/Co-op,558 Ashbury St,San Francisco,CA,94117,1495000,3,1.0,San Francisco,1651,2500,1904,8,906,325,Active,August-12-2021 06:00 PM,August-12-2021 07:30 PM,http://www.redfin.com/CA/San-Francisco/558-Ashbury-St-94117/home/1761614,San Francisco MLS,421564934,N,Y,37.770231,-122.4467796
MLS Listing,,Single Family Residential,2119 22nd St,San Francisco,CA,94107,950000,3,,San Francisco,1700,1873,1900,8,559,,Active,,,http://www.redfin.com/CA/San-Francisco/2119-22nd-St-94107/home/1495284,San Francisco MLS,421581773,N,Y,37.7569466,-122.4022822
MLS Listing,,Condo/Co-op,2311 Scott St #3,San Francisco,CA,94115,799000,0,1.0,San Francisco,,,1965,8,,282,Active,August-14-2021 02:00 PM,August-14-2021 04:00 PM,http://www.redfin.com/CA/San-Francisco/2311-Scott-St-94115/unit-3/home/11743255,San Francisco MLS,421575235,N,Y,37.7913608,-122.4396242
MLS Listing,,Condo/Co-op,8 Buchanan St #306,San Francisco,CA,94102,795000,1,1.0,San Francisco,640,21140,2014,8,1242,464,Active,August-15-2021 01:00 PM,August-15-2021 03:00 PM,http://www.redfin.com/CA/San-Francisco/8-Buchanan-St-94102/unit-306/home/110051508,San Francisco MLS,421581610,N,Y,37.7699896,-122.426517
MLS Listing,,Condo/Co-op,2646 Post St #2,San Francisco,CA,94115,799000,1,1.0,San Francisco,845,2300,1927,8,946,250,Active,August-14-2021 01:00 PM,August-14-2021 03:00 PM,http://www.redfin.com/CA/San-Francisco/2646-Post-St-94115/unit-2/home/1894029,San Francisco MLS,421581287,N,Y,37.7837684,-122.4455516
MLS Listing,,Single Family Residential,508 Joost Ave,SAN FRANCISCO,CA,94127,1598888,4,2.0,SAN FRANCISCO,1422,2495,1958,8,1124,,Active,,,http://www.redfin.com/CA/San-Francisco/508-Joost-Ave-94127/home/1102378,MLSListings,ML81856800,N,Y,37.732523,-122.4468344
MLS Listing,,Condo/Co-op,133 Ellert St #2,San Francisco,CA,94110,850000,2,1.0,San Francisco,930,1350,1908,8,914,420,Active,August-15-2021 02:00 PM,August-15-2021 04:00 PM,http://www.redfin.com/CA/San-Francisco/133-Ellert-St-94110/unit-2/home/148066513,San Francisco MLS,421581577,N,Y,37.7384662,-122.416921
MLS Listing,,Condo/Co-op,1776 Sacramento St #706,San Francisco,CA,94109,1299000,3,2.0,San Francisco,1449,19662,1992,8,896,841,Active,,,http://www.redfin.com/CA/San-Francisco/1776-Sacramento-St-94109/unit-706/home/1401336,San Francisco MLS,421581130,N,Y,37.7915441,-122.4221102
MLS Listing,,Single Family Residential,1235 22nd Ave,San Francisco,CA,94122,1095000,3,1.0,San Francisco,1500,3300,1919,8,730,,Active,,,http://www.redfin.com/CA/San-Francisco/1235-22nd-Ave-94122/home/2023930,San Francisco MLS,421579715,N,Y,37.7645891,-122.4807557
MLS Listing,,Multi-Family (2-4 Unit),3485 - 3487 Washington St,San Francisco,CA,94118,7995000,8,,San Francisco,5405,3075,1911,8,1479,,Active,August-15-2021 02:00 PM,August-15-2021 04:00 PM,http://www.redfin.com/CA/San-Francisco/3485-Washington-St-94118/home/1181170,San Francisco MLS,421581277,N,Y,37.789326,-122.450333
MLS Listing,,Condo/Co-op,1238 Sutter St #501,San Francisco,CA,94109,715000,1,1.0,San Francisco,514,4830,2018,8,1391,522,Active,August-15-2021 01:00 PM,August-15-2021 02:00 PM,http://www.redfin.com/CA/San-Francisco/1238-Sutter-St-94109/unit-501/home/147294658,San Francisco MLS,421581286,N,Y,37.7880028,-122.4208442
MLS Listing,,Condo/Co-op,1160 Mission St #1608,San Francisco,CA,94103,1295000,2,2.0,San Francisco,1201,43557,2008,8,1078,1007,Active,August-15-2021 02:00 PM,August-15-2021 04:00 PM,http://www.redfin.com/CA/San-Francisco/1160-Mission-St-94103/unit-1608/home/17306098,San Francisco MLS,421579501,N,Y,37.7786972,-122.4126145
MLS Listing,,Condo/Co-op,338 Spear St Unit 3G,San Francisco,CA,94105,725000,1,1.0,San Francisco,,76210,2009,8,,884,Active,,,http://www.redfin.com/CA/San-Francisco/338-Spear-St-94105/unit-3G/home/23424230,San Francisco MLS,421579743,N,Y,37.7894137,-122.3906433
MLS Listing,,Condo/Co-op,1110 Tennessee St,San Francisco,CA,94107,675000,4,2.5,San Francisco,1710,2500,1885,8,395,,Active,,,http://www.redfin.com/CA/San-Francisco/1110-Tennessee-St-94107/home/175948381,San Francisco MLS,421579013,N,Y,37.7576149,-122.3894682
MLS Listing,,Condo/Co-op,1073 Texas St,San Francisco,CA,94107,1249000,3,2.0,San Francisco,1630,2500,2004,8,766,100,Active,,,http://www.redfin.com/CA/San-Francisco/1073-Texas-St-94107/home/110052457,San Francisco MLS,421580665,N,Y,37.75291,-122.394457
MLS Listing,,Condo/Co-op,1108 Tennessee St,San Francisco,CA,94107,800000,2,1.5,San Francisco,1015,2500,1885,8,788,,Active,August-15-2021 02:00 PM,August-15-2021 04:00 PM,http://www.redfin.com/CA/San-Francisco/1108-Tennessee-St-94107/home/1131982,San Francisco MLS,421578993,N,Y,37.7576168,-122.3895356
MLS Listing,,Single Family Residential,2174 44th Ave,SAN FRANCISCO,CA,94116,1190000,3,2.0,SAN FRANCISCO,1214,3000,1945,9,980,,Active,August-14-2021 02:00 PM,August-14-2021 04:00 PM,http://www.redfin.com/CA/San-Francisco/2174-44th-Ave-94116/home/1182862,MLSListings,ML81856662,N,Y,37.7461029,-122.5025422
MLS Listing,,Condo/Co-op,8400 Oceanview Ter #220,San Francisco,CA,94132,598888,1,1.0,San Francisco,,,2002,9,,609,Active,,,http://www.redfin.com/CA/San-Francisco/8400-Oceanview-Ter-94132/unit-220/home/1957621,San Francisco MLS,421581066,N,Y,37.7096596,-122.4686256
MLS Listing,,Condo/Co-op,588 Minna St #306,San Francisco,CA,94103,749000,1,1.0,San Francisco,690,8084,2021,9,1086,556,Active,August-14-2021 12:00 PM,August-14-2021 02:00 PM,http://www.redfin.com/CA/San-Francisco/588-Minna-St-94103/unit-306/home/175938925,San Francisco MLS,421581062,N,Y,37.7789926,-122.4102695
MLS Listing,,Single Family Residential,448 Valley St,San Francisco,CA,94131,2195000,2,2.0,San Francisco,1438,2850,1910,9,1526,,Active,,,http://www.redfin.com/CA/San-Francisco/448-Valley-St-94131/home/1863285,San Francisco MLS,421580920,N,Y,37.7443476,-122.4323766
MLS Listing,,Multi-Family (5+ Unit),137 - 145 Bosworth St,San Francisco,CA,94112,2399000,0,,San Francisco,,5000,1945,9,,,Active,,,http://www.redfin.com/CA/San-Francisco/137-Bosworth-St-94112/home/148078453,MetroList,421581042,N,Y,37.733272,-122.428354
MLS Listing,,Condo/Co-op,1450 Franklin St #802,San Francisco,CA,94109,1795000,2,2.0,San Francisco,1325,,2017,9,1355,999,Active,,,http://www.redfin.com/CA/San-Francisco/1450-Franklin-St-94109/unit-802/home/167259453,San Francisco MLS,421572321,N,Y,37.7881104,-122.4232776
MLS Listing,,Single Family Residential,345 Twin Peaks Blvd,San Francisco,CA,94114,4850000,5,4.0,San Francisco,3246,5257,1955,9,1494,,Active,August-14-2021 01:00 AM,August-14-2021 04:00 PM,http://www.redfin.com/CA/San-Francisco/345-Twin-Peaks-Blvd-94114/home/1369174,BAREIS,421580775,N,Y,37.7571616,-122.4472347
MLS Listing,,Condo/Co-op,520 Natoma St #4,San Francisco,CA,94103,339000,0,1.0,San Francisco,330,2475,1911,9,1027,653,Active,,,http://www.redfin.com/CA/San-Francisco/520-Natoma-St-94103/unit-4/home/175936093,San Francisco MLS,421580981,N,Y,37.779856,-122.4083003
MLS Listing,,Multi-Family (2-4 Unit),1354 - 1356 48th Ave,San Francisco,CA,94122,1050000,5,2.0,San Francisco,1615,3000,1909,9,650,,Active,,,http://www.redfin.com/CA/San-Francisco/1354-48th-Ave-94122/home/631707,San Francisco MLS,421580852,N,Y,37.7611722,-122.5077977
MLS Listing,,Multi-Family (2-4 Unit),1351 - 1353 48th Ave,San Francisco,CA,94122,1095000,2,2.0,San Francisco,1352,3000,1914,9,810,,Active,,,http://www.redfin.com/CA/San-Francisco/1351-48th-Ave-94122/home/2031120,San Francisco MLS,421580774,N,Y,37.7612133,-122.5084589
MLS Listing,,Single Family Residential,662 29th St,San Francisco,CA,94131,3995000,4,4.5,San Francisco,3385,2848,1928,10,1180,,Active,August-12-2021 05:30 PM,August-12-2021 07:00 PM,http://www.redfin.com/CA/San-Francisco/662-29th-St-94131/home/1986897,San Francisco MLS,421553865,N,Y,37.7434084,-122.4346642
MLS Listing,,Single Family Residential,2087 46th Ave,San Francisco,CA,94116,1395000,3,2.0,San Francisco,1634,1746,1940,10,854,,Active,August-12-2021 05:30 PM,August-12-2021 07:00 PM,http://www.redfin.com/CA/San-Francisco/2087-46th-Ave-94116/home/992574,San Francisco MLS,421575435,N,Y,37.7476344,-122.505239
MLS Listing,,Single Family Residential,775 Congo St,San Francisco,CA,94131,1499000,4,2.5,San Francisco,2642,2866,1987,10,567,,Active,,,http://www.redfin.com/CA/San-Francisco/775-Congo-St-94131/home/1923280,San Francisco MLS,421571724,N,Y,37.7351116,-122.4410839
MLS Listing,,Condo/Co-op,1670 Kirkwood Ave Unit B,San Francisco,CA,94124,675000,3,2.0,San Francisco,1130,2495,2001,10,597,,Active,August-15-2021 11:00 AM,August-15-2021 01:00 PM,http://www.redfin.com/CA/San-Francisco/1670-Kirkwood-Ave-94124/unit-B/home/175933915,San Francisco MLS,421580796,N,Y,37.7390885,-122.3911619
MLS Listing,,Multi-Family (2-4 Unit),1262 - 1264 35th Ave,San Francisco,CA,94122,1799000,4,3.0,San Francisco,1908,2996,1913,10,,,Active,,,http://www.redfin.com/CA/San-Francisco/1262-35th-Ave-94122/home/942755,MetroList,421580264,N,Y,37.763513,-122.4939909
MLS Listing,,Condo/Co-op,1001 Pine St #610,San Francisco,CA,94109,1198000,2,2.0,San Francisco,1050,18906,1963,10,1141,927,Active,August-14-2021 02:00 PM,August-14-2021 04:00 PM,http://www.redfin.com/CA/San-Francisco/1001-Pine-St-94109/unit-610/home/552581,San Francisco MLS,421580787,N,Y,37.790348,-122.412568
MLS Listing,,Single Family Residential,3321 Moraga St,San Francisco,CA,94122,1185000,2,1.0,San Francisco,944,1851,1943,10,1255,,Active,,,http://www.redfin.com/CA/San-Francisco/3321-Moraga-St-94122/home/1173997,San Francisco MLS,421580791,N,Y,37.7549761,-122.4985055
MLS Listing,,Condo/Co-op,588 - 592 Chestnut St #592,San Francisco,CA,94133,1700000,4,3.0,San Francisco,1990,1555,1907,10,854,,Active,,,http://www.redfin.com/CA/San-Francisco/588-Chestnut-St-94133/unit-592/home/175932830,San Francisco MLS,421580782,N,Y,37.8039733,-122.4130218
MLS Listing,,Multi-Family (2-4 Unit),17 Osgood Pl,San Francisco,CA,94133,1975000,1,2.5,San Francisco,2600,2200,1906,10,760,,Active,,,http://www.redfin.com/CA/San-Francisco/17-Osgood-Pl-94133/unit-3/home/1400758,San Francisco MLS,421580295,N,Y,37.7978687,-122.4031551
MLS Listing,,Condo/Co-op,1701 Grove St #1,San Francisco,CA,94117,995000,2,1.0,San Francisco,980,,1913,10,1015,383,Active,,,http://www.redfin.com/CA/San-Francisco/1701-Grove-St-94117/unit-1/home/114068692,San Francisco MLS,421568831,N,Y,37.7749159,-122.4447914
MLS Listing,,Single Family Residential,1470 15th St,SAN FRANCISCO,CA,94103,1290000,5,2.0,SAN FRANCISCO,2880,1772,1907,10,448,,Active,,,http://www.redfin.com/CA/San-Francisco/1470-15th-St-94103/home/1034946,MLSListings,ML81856436,N,Y,37.7670313,-122.417048
MLS Listing,,Single Family Residential,181 Baltimore Way,San Francisco,CA,94112,1475000,3,2.0,San Francisco,2044,4451,1927,10,722,,Active,,,http://www.redfin.com/CA/San-Francisco/181-Baltimore-Way-94112/home/1994050,San Francisco MLS,421578751,N,Y,37.7084134,-122.4329443
MLS Listing,,Condo/Co-op,2111 Hyde St #304,San Francisco,CA,94109,2795000,3,2.5,San Francisco,2141,,,10,1305,1266,Active,,,http://www.redfin.com/CA/San-Francisco/2111-Hyde-St-94109/unit-304/home/12400361,San Francisco MLS,421576139,N,Y,37.8002924,-122.4196054
MLS Listing,,Condo/Co-op,2111 Hyde St #301,San Francisco,CA,94109,1995000,2,2.0,San Francisco,1820,,,10,1096,886,Active,,,http://www.redfin.com/CA/San-Francisco/2111-Hyde-St-94109/unit-301/home/12400358,San Francisco MLS,421579584,N,Y,37.8002924,-122.4196054
MLS Listing,,Single Family Residential,1685 Cayuga Ave,San Francisco,CA,94112,1049000,3,1.0,San Francisco,1210,2125,1939,11,867,,Active,,,http://www.redfin.com/CA/San-Francisco/1685-Cayuga-Ave-94112/home/825334,San Francisco MLS,421580058,N,Y,37.7153261,-122.4477687
MLS Listing,,Multi-Family (2-4 Unit),4440 20th St,San Francisco,CA,94114,2450000,3,2.0,San Francisco,2015,2748,1917,11,1216,,Active,,,http://www.redfin.com/CA/San-Francisco/4440-20th-St-94114/home/676088,San Francisco MLS,421572281,N,Y,37.7577285,-122.4375929
MLS Listing,,Multi-Family (2-4 Unit),4121 - 4123 20th St,San Francisco,CA,94114,2300000,5,,San Francisco,2100,2848,1900,11,1095,,Active,,,http://www.redfin.com/CA/San-Francisco/4121-20th-St-94114/home/1613144,San Francisco MLS,421578306,N,Y,37.7575395,-122.4330726
MLS Listing,,Single Family Residential,288 Farallones St,San Francisco,CA,94112,999000,3,3.0,San Francisco,1266,3249,1909,11,789,,Active,August-14-2021 01:00 AM,August-14-2021 04:00 PM,http://www.redfin.com/CA/San-Francisco/288-Farallones-St-94112/home/829530,San Francisco MLS,421580369,N,Y,37.7142514,-122.4623542
MLS Listing,,Condo/Co-op,1000 Pennsylvania Ave #10,San Francisco,CA,94107,1195000,2,3.0,San Francisco,1693,7500,2001,11,706,769,Active,,,http://www.redfin.com/CA/San-Francisco/1000-Pennsylvania-Ave-94107/unit-10/home/1284950,San Francisco MLS,421569824,N,Y,37.7539003,-122.3931659
MLS Listing,,Single Family Residential,1700 Cayuga Ave,San Francisco,CA,94112,1148999,2,2.0,San Francisco,1200,2042,1940,12,957,,Active,,,http://www.redfin.com/CA/San-Francisco/1700-Cayuga-Ave-94112/home/824788,San Francisco MLS,421580223,N,Y,37.7152635,-122.4483383
MLS Listing,,Condo/Co-op,2952 Steiner St,San Francisco,CA,94123,1695000,3,1.0,San Francisco,1345,2344,1906,12,1260,229,Active,,,http://www.redfin.com/CA/San-Francisco/2952-Steiner-St-94123/home/1078727,San Francisco MLS,421580593,N,Y,37.796652,-122.436806
MLS Listing,,Single Family Residential,1785 Geneva Ave,San Francisco,CA,94134,849000,2,1.0,San Francisco,799,2738,1946,12,1063,,Active,,,http://www.redfin.com/CA/San-Francisco/1785-Geneva-Ave-94134/home/1986330,San Francisco MLS,421580565,N,Y,37.710493,-122.424682
MLS Listing,,Single Family Residential,2219 Pacific Ave,San Francisco,CA,94115,6850000,5,4.5,San Francisco,4900,3510,1900,12,1398,,Active,,,http://www.redfin.com/CA/San-Francisco/2219-Pacific-Ave-94115/home/1650626,San Francisco MLS,421569347,N,Y,37.7934719,-122.4322807
MLS Listing,,Single Family Residential,600 Gates St,San Francisco,CA,94110,2095000,3,3.0,San Francisco,2569,1750,1908,12,815,,Active,,,http://www.redfin.com/CA/San-Francisco/600-Gates-St-94110/home/926698,San Francisco MLS,421580136,N,Y,37.7358603,-122.4143954
MLS Listing,,Single Family Residential,2695 23rd Ave,San Francisco,CA,94116,1399000,4,3.0,San Francisco,1525,2818,1926,12,917,,Active,,,http://www.redfin.com/CA/San-Francisco/2695-23rd-Ave-94116/home/1174718,San Francisco MLS,421575354,N,Y,37.7374071,-122.4798323
MLS Listing,,Single Family Residential,627 Paris St,San Francisco,CA,94112,988000,3,2.0,San Francisco,1394,2500,1934,12,709,,Active,August-15-2021 01:00 PM,August-15-2021 03:00 PM,http://www.redfin.com/CA/San-Francisco/627-Paris-St-94112/home/1821963,San Francisco MLS,421579610,N,Y,37.718738,-122.4368925
MLS Listing,,Condo/Co-op,1650 Broadway St #305,San Francisco,CA,94109,1550000,1,1.5,San Francisco,816,13547,2016,12,1900,1018,Active,,,http://www.redfin.com/CA/San-Francisco/1650-Broadway-94109/unit-305/home/108422771,San Francisco MLS,421572477,N,Y,37.795913,-122.424471
MLS Listing,,Condo/Co-op,1189 Tennessee St #404,San Francisco,CA,94107,1195000,1,1.5,San Francisco,1130,6200,2015,13,1058,722,Active,,,http://www.redfin.com/CA/San-Francisco/1189-Tennessee-St-94107/unit-404/home/84246137,San Francisco MLS,421580374,N,Y,37.7568692,-122.3888951
MLS Listing,,Condo/Co-op,1170 Sacramento St Unit 5A,San Francisco,CA,94108,2799000,2,2.5,San Francisco,2075,,1963,13,1349,2672,Active,,,http://www.redfin.com/CA/San-Francisco/1170-Sacramento-St-94108/unit-5A/home/1936069,San Francisco MLS,421579731,N,Y,37.7929056,-122.4121403
MLS Listing,,Condo/Co-op,729 Frederick St,San Francisco,CA,94117,799000,1,1.0,San Francisco,590,,1990,13,1354,372,Active,,,http://www.redfin.com/CA/San-Francisco/729-Frederick-St-94117/home/980653,San Francisco MLS,421579366,N,Y,37.7657887,-122.4567446
MLS Listing,,Single Family Residential,119 Prospect Ave,San Francisco,CA,94110,1995000,3,2.0,San Francisco,,1750,1902,13,,,Active,August-15-2021 01:00 PM,August-15-2021 04:00 PM,http://www.redfin.com/CA/San-Francisco/119-Prospect-Ave-94110/home/1167148,San Francisco MLS,421580361,N,Y,37.7431425,-122.4187537
MLS Listing,,Condo/Co-op,300 Beale St #305,San Francisco,CA,94105,1195000,1,1.0,San Francisco,1145,35461,1937,13,1044,831,Active,August-14-2021 02:00 PM,August-14-2021 04:00 PM,http://www.redfin.com/CA/San-Francisco/300-Beale-St-94105/unit-305/home/12395840,San Francisco MLS,421556256,N,Y,37.7881762,-122.3925217
MLS Listing,,Condo/Co-op,1645 Pacific Ave Unit 2G,San Francisco,CA,94109,2470000,2,2.5,San Francisco,1525,16141,2014,13,1620,980,Active,,,http://www.redfin.com/CA/San-Francisco/1645-Pacific-Ave-94109/unit-2G/home/69371510,San Francisco MLS,421563655,N,Y,37.794657,-122.422326
MLS Listing,,Multi-Family (5+ Unit),1717 Mason St,San Francisco,CA,94133,9995000,6,4.0,San Francisco,9860,4950,1927,13,1014,,Active,,,http://www.redfin.com/CA/San-Francisco/1717-Mason-St-94133/home/541433,San Francisco MLS,421580210,N,Y,37.7994027,-122.4126366
MLS Listing,,Multi-Family (5+ Unit),3660 20th St,San Francisco,CA,94110,1100000,0,,San Francisco,3862,2866,1907,13,285,,Active,,,http://www.redfin.com/CA/San-Francisco/3660-20th-St-94110/home/1944341,San Francisco MLS,421580256,N,Y,37.7585144,-122.4226499
MLS Listing,,Condo/Co-op,900 Bush St #303,San Francisco,CA,94109,625000,1,1.0,San Francisco,596,37816,1982,13,1049,1058,Active,August-15-2021 02:00 PM,August-15-2021 04:00 PM,http://www.redfin.com/CA/San-Francisco/900-Bush-St-94109/unit-303/home/1434060,San Francisco MLS,421580196,N,Y,37.7899069,-122.4123875
MLS Listing,,Condo/Co-op,60 Rausch St #201,San Francisco,CA,94103,2099000,3,1.5,San Francisco,2590,,2002,13,810,820,Active,,,http://www.redfin.com/CA/San-Francisco/60-Rausch-St-94103/unit-201/home/12399642,San Francisco MLS,421578624,N,Y,37.7760722,-122.4096499
MLS Listing,,Multi-Family (2-4 Unit),2859 Turk Blvd,San Francisco,CA,94118,1550000,3,,San Francisco,2563,2250,1939,13,605,,Active,,,http://www.redfin.com/CA/San-Francisco/2859-Turk-Blvd-94118/home/1969071,San Francisco MLS,421580194,N,Y,37.7776732,-122.4526311
MLS Listing,,Multi-Family (2-4 Unit),1742 - 1746 Filbert St,San Francisco,CA,94123,3499000,9,4.0,San Francisco,4644,4133,1911,13,753,,Active,,,http://www.redfin.com/CA/San-Francisco/1742-Filbert-St-94123/home/563026,San Francisco MLS,421580195,N,Y,37.799292,-122.4282454
MLS Listing,,Condo/Co-op,406 Hoffman Ave,San Francisco,CA,94114,1799000,3,2.0,San Francisco,,2495,1966,13,,315,Active,,,http://www.redfin.com/CA/San-Francisco/406-Hoffman-94114/home/175902259,San Francisco MLS,421579843,N,Y,37.7505458,-122.440824
MLS Listing,,Single Family Residential,45 Capra Way,San Francisco,CA,94123,10300000,4,5.5,San Francisco,5625,3637,,13,1831,,Active,August-14-2021 12:00 PM,August-14-2021 02:00 PM,http://www.redfin.com/CA/San-Francisco/45-Capra-Way-94123/home/2007013,San Francisco MLS,421579628,N,Y,37.802554,-122.439253
MLS Listing,,Condo/Co-op,101 Lombard Unit 409E,San Francisco,CA,94111,1348000,1,1.5,San Francisco,1114,,1983,13,1210,1069,Active,August-15-2021 01:00 PM,August-15-2021 03:00 PM,http://www.redfin.com/CA/San-Francisco/101-Lombard-St-94111/unit-409E/home/1286775,San Francisco MLS,421579082,N,Y,37.8037119,-122.4045338
MLS Listing,,Single Family Residential,344 Willard North,San Francisco,CA,94118,2850000,4,2.5,San Francisco,2500,1980,1905,13,1140,,Active,,,http://www.redfin.com/CA/San-Francisco/344-Willard-N-94118/home/1804602,San Francisco MLS,421579727,N,Y,37.7749357,-122.4560994
MLS Listing,,Multi-Family (2-4 Unit),1612 - 1614 Kirkham St,San Francisco,CA,94122,1588000,4,2.0,San Francisco,1750,1624,1944,13,907,,Active,,,http://www.redfin.com/CA/San-Francisco/1612-Kirkham-St-94122/home/1959839,San Francisco MLS,421576368,N,Y,37.7599743,-122.4782658
MLS Listing,,Condo/Co-op,445 Francisco St #100,San Francisco,CA,94133,1295000,2,2.0,San Francisco,1132,44663,2001,13,1144,796,Active,,,http://www.redfin.com/CA/San-Francisco/445-Francisco-St-94133/unit-100/home/114077171,San Francisco MLS,421578296,N,Y,37.8046669,-122.4126295
MLS Listing,,Single Family Residential,348 Eureka St,San Francisco,CA,94114,2495000,4,3.5,San Francisco,2645,3249,1910,13,943,,Active,,,http://www.redfin.com/CA/San-Francisco/348-Eureka-St-94114/home/675787,San Francisco MLS,421579943,N,Y,37.7565375,-122.4380564
MLS Listing,,Single Family Residential,151 Hearst Ave,San Francisco,CA,94131,1159000,3,1.0,San Francisco,1369,2809,1948,13,847,,Active,,,http://www.redfin.com/CA/San-Francisco/151-Hearst-Ave-94131/home/1966828,San Francisco MLS,421575417,N,Y,37.7305914,-122.4409181
MLS Listing,,Condo/Co-op,188 Minna St Unit 24A,San Francisco,CA,94105,3995000,3,3.0,San Francisco,2027,33056,2005,13,1971,2889,Active,,,http://www.redfin.com/CA/San-Francisco/188-Minna-St-94105/unit-24A/home/22854526,San Francisco MLS,421578834,N,Y,37.7861425,-122.4012961
MLS Listing,,Condo/Co-op,1863 19th Ave,San Francisco,CA,94122,998000,2,2.0,San Francisco,1203,3000,1948,13,830,,Active,,,http://www.redfin.com/CA/San-Francisco/1863-19th-Ave-94122/home/873215,San Francisco MLS,421579002,N,Y,37.7530674,-122.4765991
MLS Listing,,Single Family Residential,662 Hearst Ave,San Francisco,CA,94112,945000,2,1.0,San Francisco,1140,2809,1922,13,829,,Active,,,http://www.redfin.com/CA/San-Francisco/662-Hearst-Ave-94112/home/1758318,San Francisco MLS,421576548,N,Y,37.7309259,-122.452586
MLS Listing,,Condo/Co-op,1490 Francisco St #3,San Francisco,CA,94123,1299000,2,1.0,San Francisco,920,5000,1924,13,1412,556,Active,August-15-2021 11:00 AM,August-15-2021 01:00 PM,http://www.redfin.com/CA/San-Francisco/1490-Francisco-St-94123/unit-3/home/175899174,San Francisco MLS,421579747,N,Y,37.802786,-122.4295821
MLS Listing,,Single Family Residential,400 Pioche St,San Francisco,CA,94134,1249000,3,2.0,San Francisco,1364,1271,1942,13,916,,Active,,,http://www.redfin.com/CA/San-Francisco/400-Pioche-St-94134/home/1379332,San Francisco MLS,421578833,N,Y,37.7281357,-122.4225918
MLS Listing,,Condo/Co-op,1233 Howard St Unit 3B,San Francisco,CA,94103,898000,1,2.0,San Francisco,946,14956,2000,13,949,502,Active,,,http://www.redfin.com/CA/San-Francisco/1233-Howard-St-94103/unit-3B/home/22876762,San Francisco MLS,421579001,N,Y,37.775746,-122.411946
MLS Listing,,Condo/Co-op,1900 Sutter St #4,San Francisco,CA,94115,639000,1,1.0,San Francisco,567,9669,1980,13,1127,514,Active,August-15-2021 02:00 PM,August-15-2021 04:00 PM,http://www.redfin.com/CA/San-Francisco/1900-Sutter-St-94115/unit-4/home/1634711,San Francisco MLS,421576040,N,Y,37.786447,-122.431999
MLS Listing,,Condo/Co-op,637 Powell St #102,San Francisco,CA,94108,1188000,3,2.0,San Francisco,1590,3920,1923,13,747,889,Active,,,http://www.redfin.com/CA/San-Francisco/637-Powell-St-94108/unit-102/home/1973790,San Francisco MLS,421579186,N,Y,37.790666,-122.4090968
MLS Listing,,Condo/Co-op,501 Crescent Way #5409,San Francisco,CA,94134,949000,3,2.0,San Francisco,1424,72305,2006,13,666,510,Active,,,http://www.redfin.com/CA/San-Francisco/501-Crescent-Way-94134/unit-5409/home/12402609,San Francisco MLS,421578602,N,Y,37.7117617,-122.388583
MLS Listing,,Condo/Co-op,139 Stillman St #6,San Francisco,CA,94107,749000,1,1.5,San Francisco,830,2915,2005,13,902,515,Active,August-14-2021 01:00 PM,August-14-2021 03:00 PM,http://www.redfin.com/CA/San-Francisco/139-Stillman-St-94107/unit-6/home/22881602,San Francisco MLS,421555868,N,Y,37.7809242,-122.3971931
MLS Listing,,Condo/Co-op,55 Red Rock Way Unit 106O,San Francisco,CA,94131,475000,0,1.0,San Francisco,474,7396,1972,13,1002,516,Active,August-15-2021 11:00 AM,August-15-2021 01:30 PM,http://www.redfin.com/CA/San-Francisco/55-Red-Rock-Way-94131/unit-106O/home/1705165,San Francisco MLS,421570214,N,Y,37.7459864,-122.4410176
MLS Listing,,Condo/Co-op,253 Bocana St,San Francisco,CA,94110,800000,1,1.0,San Francisco,876,1704,1905,14,913,325,Active,,,http://www.redfin.com/CA/San-Francisco/253-Bocana-St-94110/home/69054812,San Francisco MLS,421579879,N,Y,37.7396255,-122.4181638
MLS Listing,,Condo/Co-op,352 San Carlos St,San Francisco,CA,94110,728000,2,1.0,San Francisco,743,,1900,14,980,380,Active,,,http://www.redfin.com/CA/San-Francisco/352-San-Carlos-St-94110/home/148070468,San Francisco MLS,421579467,N,Y,37.7577254,-122.4198982
MLS Listing,,Multi-Family (2-4 Unit),6945 Geary Blvd,San Francisco,CA,94121,1999999,5,3.0,San Francisco,3319,1500,1941,14,603,,Active,August-14-2021 11:00 AM,August-14-2021 01:00 PM,http://www.redfin.com/CA/San-Francisco/6945-Geary-Blvd-94121/home/1573138,San Francisco MLS,421579888,N,Y,37.7794553,-122.4941401
MLS Listing,,Condo/Co-op,201 Sansome St #905,San Francisco,CA,94104,725000,1,1.0,San Francisco,,5876,1909,14,,673,Active,,,http://www.redfin.com/CA/San-Francisco/201-Sansome-St-94104/unit-905/home/12402513,San Francisco MLS,421579335,N,Y,37.7922314,-122.4012282
MLS Listing,,Multi-Family (5+ Unit),51 - 73 Card Aly,San Francisco,CA,94133,2500000,0,,San Francisco,5391,3002,1905,14,464,,Active,,,http://www.redfin.com/CA/San-Francisco/51-Card-Aly-94133/unit-73/home/171967187,San Francisco MLS,421579877,N,Y,37.798888,-122.409581
MLS Listing,,Single Family Residential,610 Ortega St,San Francisco,CA,94122,4950000,4,4.5,San Francisco,3800,3968,1951,14,1303,,Active,,,http://www.redfin.com/CA/San-Francisco/610-Ortega-St-94122/home/903952,San Francisco MLS,421575348,N,Y,37.7549076,-122.4701427
MLS Listing,,Condo/Co-op,451 Kansas St #448,SAN FRANCISCO,CA,94107,1248000,2,2.5,SAN FRANCISCO,1030,80311,2007,14,1212,636,Active,August-14-2021 01:00 PM,August-14-2021 04:00 PM,http://www.redfin.com/CA/San-Francisco/451-Kansas-St-94107/unit-448/home/23424279,MLSListings,ML81856017,N,Y,37.7639023,-122.4030146
MLS Listing,,Single Family Residential,1833 10th Ave,San Francisco,CA,94122,2495000,4,3.5,San Francisco,3000,3000,1985,14,832,,Active,August-12-2021 04:30 PM,August-12-2021 06:30 PM,http://www.redfin.com/CA/San-Francisco/1833-10th-Ave-94122/home/1072117,San Francisco MLS,421578940,N,Y,37.7540282,-122.4669254
MLS Listing,,Condo/Co-op,388 Fulton St #603,San Francisco,CA,94102,609000,0,1.0,San Francisco,326,12509,2016,14,1868,445,Active,,,http://www.redfin.com/CA/San-Francisco/388-Fulton-St-94102/unit-603/home/109464798,San Francisco MLS,421579810,N,Y,37.7790326,-122.4231449
MLS Listing,,Condo/Co-op,373 Capp St,San Francisco,CA,94110,1195000,3,2.0,San Francisco,1400,2792,1906,14,854,250,Active,,,http://www.redfin.com/CA/San-Francisco/373-Capp-St-94110/home/110028773,San Francisco MLS,421579803,N,Y,37.760767,-122.417851
MLS Listing,,Townhouse,1780 Bancroft Ave #554,San Francisco,CA,94124,563569,2,1.5,San Francisco,1117,100298,2009,14,505,433,Active,August-16-2021 05:00 PM,August-16-2021 07:00 PM,http://www.redfin.com/CA/San-Francisco/1780-Bancroft-Ave-94124/unit-554/home/40457229,BAREIS,421578944,N,Y,37.7273744,-122.3956639
MLS Listing,,Multi-Family (2-4 Unit),,San Francisco,CA,94118,2250000,3,1.0,San Francisco,2355,3000,,14,955,,Active,,,http://www.redfin.com/CA/San-Francisco/Undisclosed-address-94118/home/2010408,San Francisco MLS,421575179,N,Y,37.7820959,-122.46352
MLS Listing,,Single Family Residential,111 Middlefield Dr,San Francisco,CA,94132,1780000,3,2.0,San Francisco,1415,3301,1950,14,1258,,Active,,,http://www.redfin.com/CA/San-Francisco/111-Middlefield-Dr-94132/home/1380910,San Francisco MLS,421579708,N,Y,37.7319845,-122.4865307
MLS Listing,,Single Family Residential,775 CLEMENTINA St,San Francisco,CA,94103,2000000,3,3.0,Soma,2150,1875,1923,14,930,,Active,,,http://www.redfin.com/CA/San-Francisco/775-Clementina-St-94103/home/718778,"bridgeMLS, Bay East AOR, or Contra Costa AOR",40960487,N,Y,37.7743924,-122.4116632
MLS Listing,,Single Family Residential,4366 26th St,San Francisco,CA,94131,3295000,4,3.0,San Francisco,2765,2848,1955,14,1192,,Active,,,http://www.redfin.com/CA/San-Francisco/4366-26th-St-94114/home/1328430,San Francisco MLS,421564950,N,Y,37.748031,-122.43747
MLS Listing,,Multi-Family (2-4 Unit),1490 20th Ave,San Francisco,CA,94122,1980000,9,6.0,San Francisco,3590,2374,1988,14,552,,Active,August-14-2021 02:00 PM,August-14-2021 04:00 PM,http://www.redfin.com/CA/San-Francisco/1490-20th-Ave-94122/home/2000080,San Francisco MLS,421578140,N,Y,37.7600257,-122.477782
MLS Listing,,Condo/Co-op,1446 Sacramento St,San Francisco,CA,94109,1198000,2,2.0,San Francisco,,4726,1908,14,,434,Active,August-14-2021 02:00 PM,August-14-2021 04:00 PM,http://www.redfin.com/CA/San-Francisco/1446-Sacramento-St-94109/home/21625292,San Francisco MLS,421576696,N,Y,37.7921231,-122.4167856
MLS Listing,,Condo/Co-op,280 Spear St Unit 1F,San Francisco,CA,94105,1095000,2,1.0,San Francisco,823,47916,,14,1330,1118,Active,,,http://www.redfin.com/CA/San-Francisco/280-Spear-St-94105/unit-1F/home/174716077,San Francisco MLS,421579568,N,Y,37.7903739,-122.3913812
MLS Listing,,Single Family Residential,150 32nd Ave,San Francisco,CA,94121,3995000,6,4.5,San Francisco,4671,3188,1914,14,855,,Active,August-14-2021 12:00 PM,August-14-2021 02:00 PM,http://www.redfin.com/CA/San-Francisco/150-32nd-Ave-94121/home/970898,San Francisco MLS,421578391,N,Y,37.7858943,-122.4928121
MLS Listing,,Condo/Co-op,3191 California St,San Francisco,CA,94115,1188000,2,2.0,Lower Pac Hts,1048,3256,1905,14,1134,447,Active,,,http://www.redfin.com/CA/San-Francisco/3191-California-St-94115/home/1060416,"bridgeMLS, Bay East AOR, or Contra Costa AOR",40960899,N,Y,37.7870419,-122.4464502
MLS Listing,,Condo/Co-op,1450 Franklin St #605,San Francisco,CA,94109,1599000,2,2.0,San Francisco,1326,12318,2017,14,1206,1027,Active,August-12-2021 05:30 PM,August-12-2021 06:30 PM,http://www.redfin.com/CA/San-Francisco/1450-Franklin-St-94109/unit-605/home/125805601,San Francisco MLS,421574525,N,Y,37.7881104,-122.4232776
MLS Listing,,Multi-Family (2-4 Unit),254 Roosevelt Way,San Francisco,CA,94114,1995000,5,4.0,San Francisco,2500,2750,1904,14,798,,Active,,,http://www.redfin.com/CA/San-Francisco/254-Roosevelt-Way-94114/home/1629257,San Francisco MLS,421579345,N,Y,37.766044,-122.440677
MLS Listing,,Condo/Co-op,163 Octavia Blvd,San Francisco,CA,94102,995000,1,1.0,San Francisco,1037,5211,1900,14,959,400,Active,,,http://www.redfin.com/CA/San-Francisco/163-Octavia-St-94102/home/114075434,San Francisco MLS,421579202,N,Y,37.7737576,-122.4242509
MLS Listing,,Single Family Residential,1936 23rd Ave,San Francisco,CA,94116,1695000,4,2.0,San Francisco,2285,2996,1940,14,742,,Active,August-14-2021 01:00 PM,August-14-2021 03:00 PM,http://www.redfin.com/CA/San-Francisco/1936-23rd-Ave-94116/home/1889284,San Francisco MLS,421577875,N,Y,37.7514389,-122.4803135
MLS Listing,,Condo/Co-op,2250 24th St #336,San Francisco,CA,94107,630000,1,1.0,San Francisco,602,80224,1989,14,1047,539,Active,,,http://www.redfin.com/CA/San-Francisco/2250-24th-St-94107/unit-336/home/2027769,BAREIS,421578499,N,Y,37.7533831,-122.4021236
MLS Listing,,Single Family Residential,609 Garfield,San Francisco,CA,94132,1088000,2,1.5,Merced Heights,900,1500,1949,14,1209,,Active,,,http://www.redfin.com/CA/San-Francisco/609-Garfield-St-94132/home/1632239,"bridgeMLS, Bay East AOR, or Contra Costa AOR",40960886,N,Y,37.7195326,-122.4683184
MLS Listing,,Single Family Residential,738 Geneva Ave,San Francisco,CA,94112,1249000,3,2.0,San Francisco,1582,2378,1960,14,790,,Active,,,http://www.redfin.com/CA/San-Francisco/738-Geneva-Ave-94112/home/823152,San Francisco MLS,421579415,N,Y,37.7182103,-122.4431188
MLS Listing,,Condo/Co-op,3676 16th St,San Francisco,CA,94114,1295000,3,3.0,San Francisco,1538,2874,,14,842,300,Active,August-14-2021 01:00 PM,August-14-2021 03:00 PM,http://www.redfin.com/CA/San-Francisco/3676-16th-St-94114/home/175892472,San Francisco MLS,421579265,N,Y,37.7643562,-122.4347768
MLS Listing,,Condo/Co-op,1501 Filbert St Unit 4A,San Francisco,CA,94123,1695000,2,2.0,San Francisco,1220,10900,2014,15,1389,741,Active,,,http://www.redfin.com/CA/San-Francisco/1501-Filbert-St-94123/unit-4A/home/110051425,San Francisco MLS,421578500,N,Y,37.7991911,-122.4245164
MLS Listing,,Condo/Co-op,338 Main St Unit 24B,San Francisco,CA,94105,2250000,2,2.0,South Beach,1178,75406,2016,15,1910,1213,Active,,,http://www.redfin.com/CA/San-Francisco/338-Main-St-94105/unit-24B/home/110052634,"bridgeMLS, Bay East AOR, or Contra Costa AOR",40960860,N,Y,37.7886733,-122.3914178
MLS Listing,,Condo/Co-op,946 Stockton St Unit 12D,San Francisco,CA,94108,949000,3,2.0,San Francisco,,10067,,15,,1223,Active,,,http://www.redfin.com/CA/San-Francisco/946-Stockton-St-94108/unit-12D/home/1601312,San Francisco MLS,421579461,N,Y,37.7947159,-122.4078309
MLS Listing,,Condo/Co-op,1811 Jackson St,San Francisco,CA,94109,1650000,3,2.5,San Francisco,1743,2312,1954,15,947,325,Active,,,http://www.redfin.com/CA/San-Francisco/1811-Jackson-St-94109/home/1347176,San Francisco MLS,421558894,N,Y,37.793459,-122.425186
MLS Listing,,Condo/Co-op,257 Central Ave,San Francisco,CA,94117,1150000,2,1.0,San Francisco,1149,3088,1908,15,1001,343,Active,,,http://www.redfin.com/CA/San-Francisco/257-Central-Ave-94117/home/599436,San Francisco MLS,421579288,N,Y,37.7720961,-122.4441792
MLS Listing,,Condo/Co-op,2177 3rd St #604,San Francisco,CA,94107,935000,1,1.0,San Francisco,686,,2020,15,1363,802,Active,,,http://www.redfin.com/CA/San-Francisco/2177-3rd-St-94107/unit-604/home/175891670,San Francisco MLS,421579381,N,Y,37.7622991,-122.3884155
MLS Listing,,Condo/Co-op,2177 3rd St #613,San Francisco,CA,94107,725000,0,1.0,San Francisco,502,,2020,15,1444,742,Active,,,http://www.redfin.com/CA/San-Francisco/2177-3rd-St-94107/unit-613/home/175891629,San Francisco MLS,421579388,N,Y,37.7622991,-122.3884155
MLS Listing,,Single Family Residential,2170 Green St,San Francisco,CA,94123,11000000,9,8.5,San Francisco,7720,7562,1900,15,1425,,Active,,,http://www.redfin.com/CA/San-Francisco/2170-Green-St-94123/home/852113,San Francisco MLS,421578572,N,Y,37.796503,-122.434848
MLS Listing,,Single Family Residential,214 Bonview St,San Francisco,CA,94110,1575000,2,2.0,San Francisco,1425,2191,1900,15,1105,,Active,,,http://www.redfin.com/CA/San-Francisco/214-Bonview-St-94110/home/1510981,San Francisco MLS,421578406,N,Y,37.7405297,-122.4187426
MLS Listing,,Condo/Co-op,870 Harrison St #405,San Francisco,CA,94107,369563,2,1.0,San Francisco,889,5843,,15,416,705,Active,,,http://www.redfin.com/CA/San-Francisco/870-Harrison-St-94107/unit-405/home/109686975,San Francisco MLS,421579304,N,Y,37.7797695,-122.401375
MLS Listing,,Condo/Co-op,66 Cleary Ct #1003,San Francisco,CA,94109,1175000,3,2.0,San Francisco,1102,65376,1963,15,1066,998,Active,,,http://www.redfin.com/CA/San-Francisco/66-Cleary-Ct-94109/unit-1003/home/1846440,San Francisco MLS,421558295,N,Y,37.7841279,-122.4273921
MLS Listing,,Condo/Co-op,708 Long Bridge St #110,San Francisco,CA,94158,1398000,1,2.0,San Francisco,1090,84866,2016,15,1283,1137,Active,,,http://www.redfin.com/CA/San-Francisco/708-Long-Bridge-St-94158/unit-110/home/109278479,San Francisco MLS,421568698,N,Y,37.7720304,-122.3935768
MLS Listing,,Condo/Co-op,300 3rd St #1014,SAN FRANCISCO,CA,94107,1298000,2,2.0,SAN FRANCISCO,1161,,1990,15,1118,895,Active,August-15-2021 02:00 PM,August-15-2021 04:00 PM,http://www.redfin.com/CA/San-Francisco/300-3rd-St-94107/unit-1014/home/1103114,MLSListings,ML81855685,N,Y,37.7835658,-122.3989483
MLS Listing,,Condo/Co-op,301 Crescent Ct #3117,San Francisco,CA,94134,598888,1,1.0,San Francisco,807,114415,2007,15,742,507,Active,,,http://www.redfin.com/CA/San-Francisco/301-Crescent-Ct-94134/unit-3117/home/22892122,San Francisco MLS,421576806,N,Y,37.711115,-122.388595
MLS Listing,,Single Family Residential,2275 28th Ave,San Francisco,CA,94116,1198000,3,2.0,San Francisco,1370,3000,1930,15,874,,Active,August-12-2021 04:00 PM,August-12-2021 06:00 PM,http://www.redfin.com/CA/San-Francisco/2275-28th-Ave-94116/home/1517014,San Francisco MLS,421571267,N,Y,37.744974,-122.4857413
MLS Listing,,Condo/Co-op,3747 Divisadero St,San Francisco,CA,94123,2950000,3,3.0,San Francisco,,2504,1993,16,,,Active,August-15-2021 11:00 AM,August-15-2021 01:00 PM,http://www.redfin.com/CA/San-Francisco/3747-Divisadero-St-94123/home/854281,San Francisco MLS,421576783,N,Y,37.8043017,-122.4440425
MLS Listing,,Single Family Residential,810 Douglass St,San Francisco,CA,94114,2199000,2,2.0,San Francisco,1125,3123,1900,16,1955,,Active,August-14-2021 02:00 PM,August-14-2021 04:00 PM,http://www.redfin.com/CA/San-Francisco/810-Douglass-St-94114/home/1336759,San Francisco MLS,421579067,N,Y,37.750519,-122.438748
MLS Listing,,Condo/Co-op,960 Market St #303,San Francisco,CA,94102,880000,1,1.0,San Francisco,640,,,16,1375,745,Active,,,http://www.redfin.com/CA/San-Francisco/960-Market-St-94102/unit-303/home/175867671,San Francisco MLS,421579028,N,Y,37.7831239,-122.4095552
MLS Listing,,Single Family Residential,129 30th St,San Francisco,CA,94110,1799000,3,2.0,San Francisco,1840,2200,1900,16,978,,Active,,,http://www.redfin.com/CA/San-Francisco/129-30th-St-94110/home/806264,San Francisco MLS,421578872,N,Y,37.74205,-122.423855
MLS Listing,,Condo/Co-op,5900 3rd St #2415,San Francisco,CA,94124,695000,1,1.0,San Francisco,823,,2010,16,844,450,Active,,,http://www.redfin.com/CA/San-Francisco/5900-3rd-St-94124/unit-2415/home/40629166,San Francisco MLS,421578530,N,Y,37.724666,-122.395268
MLS Listing,,Townhouse,20 Scott Aly,San Francisco,CA,94107,965000,2,1.0,San Francisco,1092,14872,1997,17,884,226,Active,,,http://www.redfin.com/CA/San-Francisco/20-Scott-Aly-94107/home/2034350,BAREIS,421578651,N,Y,37.7796913,-122.402467
MLS Listing,,Vacant Land,337 Mullen Ave,San Francisco,CA,94110,325000,0,,San Francisco,,2099,,17,,,Active,,,http://www.redfin.com/CA/San-Francisco/337-Mullen-Ave-94110/unit-V/home/110063664,San Francisco MLS,421578658,N,Y,37.746355,-122.405753
MLS Listing,,Condo/Co-op,488 Folsom St #4401,San Francisco,CA,94105,4100000,3,3.0,San Francisco,1934,,2019,17,2120,1847,Active,,,http://www.redfin.com/CA/San-Francisco/488-Folsom-St-94105/unit-4401/home/169571699,San Francisco MLS,421578656,N,Y,37.7878074,-122.3943328
MLS Listing,,Condo/Co-op,1256 York St,San Francisco,CA,94110,1395000,3,1.5,San Francisco,1420,2577,1925,17,982,,Active,,,http://www.redfin.com/CA/San-Francisco/1256-York-St-94110/home/110052081,San Francisco MLS,421563899,N,Y,37.7519321,-122.4083003
MLS Listing,,Multi-Family (2-4 Unit),847 Castro St,San Francisco,CA,94114,2275000,3,4.0,San Francisco,2224,1950,1910,17,1023,,Active,,,http://www.redfin.com/CA/San-Francisco/847-Castro-St-94114/home/1621707,San Francisco MLS,421576060,N,Y,37.7554384,-122.4341914
MLS Listing,,Condo/Co-op,3131 Pierce St Unit TH101,San Francisco,CA,94123,2495000,2,2.5,San Francisco,1731,,,17,1441,888,Active,,,http://www.redfin.com/CA/San-Francisco/3131-Pierce-St-94123/unit-TH101/home/175852532,San Francisco MLS,421578560,N,Y,37.7989774,-122.4394952
MLS Listing,,Condo/Co-op,88 Townsend St #319,SAN FRANCISCO,CA,94107,1380000,2,2.0,SAN FRANCISCO,1150,,2004,17,1200,725,Active,,,http://www.redfin.com/CA/San-Francisco/88-Townsend-St-94102/unit-319/home/12401575,MLSListings,ML81855394,N,Y,37.7811985,-122.3906654
MLS Listing,,Multi-Family (5+ Unit),540 Cole St,San Francisco,CA,94117,4200000,0,,San Francisco,6150,4373,1911,17,683,,Active,,,http://www.redfin.com/CA/San-Francisco/540-Cole-St-94117/home/2030812,San Francisco MLS,421574306,N,Y,37.7700002,-122.4500191
MLS Listing,,Condo/Co-op,1310 Fulton St #309,San Francisco,CA,94117,999000,2,2.0,San Francisco,948,,1989,17,1054,654,Active,,,http://www.redfin.com/CA/San-Francisco/1310-Fulton-St-94117/unit-309/home/593908,San Francisco MLS,421578451,N,Y,37.7770163,-122.4384478
MLS Listing,,Single Family Residential,266 Edinburgh St,San Francisco,CA,94112,848000,2,1.0,San Francisco,1073,2495,1922,17,790,,Active,,,http://www.redfin.com/CA/San-Francisco/266-Edinburgh-St-94112/home/773249,San Francisco MLS,421572458,N,Y,37.7249547,-122.4294829
MLS Listing,,Condo/Co-op,458 11th Ave #458,San Francisco,CA,94118,2150000,7,,San Francisco,4512,3000,2005,17,477,,Active,,,http://www.redfin.com/CA/San-Francisco/458-11th-Ave-94118/unit-458/home/175847907,San Francisco MLS,421578455,N,Y,37.779627,-122.469222
MLS Listing,,Condo/Co-op,458 11th Ave #456,San Francisco,CA,94118,1150000,7,,San Francisco,4512,3000,2005,17,255,,Active,,,http://www.redfin.com/CA/San-Francisco/458-11th-Ave-94118/unit-456/home/175847906,San Francisco MLS,421578442,N,Y,37.779627,-122.469222
MLS Listing,,Condo/Co-op,890 - 898 Green St #890,San Francisco,CA,94133,998000,2,1.5,San Francisco,850,2395,1908,17,1174,397,Active,August-15-2021 11:00 AM,August-15-2021 02:00 PM,http://www.redfin.com/CA/San-Francisco/890-Green-St-94133/unit-890/home/175847905,San Francisco MLS,421578315,N,Y,37.7990676,-122.4137426
MLS Listing,,Single Family Residential,424 Avalon Ave,San Francisco,CA,94112,799950,2,1.0,San Francisco,875,1873,1922,18,,,Active,,,http://www.redfin.com/CA/San-Francisco/424-Avalon-Ave-94112/home/1598706,MetroList,421578390,N,Y,37.7259176,-122.428954
MLS Listing,,Condo/Co-op,791 18th Ave,SAN FRANCISCO,CA,94121,1099000,2,1.0,SAN FRANCISCO,1150,,1920,18,956,290,Active,,,http://www.redfin.com/CA/San-Francisco/791-18th-Ave-94121/home/1338730,MLSListings,ML81855326,N,Y,37.7731571,-122.4768862
MLS Listing,,Condo/Co-op,900 Bush St #906,San Francisco,CA,94109,899000,1,1.0,San Francisco,831,37816,1982,18,1082,1125,Active,August-15-2021 02:00 PM,August-15-2021 04:00 PM,http://www.redfin.com/CA/San-Francisco/900-Bush-St-94109/unit-906/home/554343,San Francisco MLS,421574755,N,Y,37.7899069,-122.4123875
MLS Listing,,Condo/Co-op,950 Lake St,San Francisco,CA,94118,1995000,3,2.0,San Francisco,1817,2689,1908,18,1098,372,Active,,,http://www.redfin.com/CA/San-Francisco/950-Lake-St-94118/home/1154785,San Francisco MLS,421576945,N,Y,37.7866132,-122.4698773
MLS Listing,,Single Family Residential,556 Funston Ave,San Francisco,CA,94118,3850000,6,4.5,San Francisco,4708,3600,1913,19,818,,Active,August-15-2021 02:00 PM,August-15-2021 04:00 PM,http://www.redfin.com/CA/San-Francisco/556-Funston-Ave-94118/home/991525,San Francisco MLS,421574821,N,Y,37.7777993,-122.4713367
MLS Listing,,Condo/Co-op,855 Folsom St #124,SAN FRANCISCO,CA,94107,799888,1,1.5,SAN FRANCISCO,904,,2001,19,885,717,Active,,,http://www.redfin.com/CA/San-Francisco/855-Folsom-St-94107/unit-124/home/12397836,MLSListings,ML81855289,N,Y,37.7808956,-122.4019503
MLS Listing,,Single Family Residential,1690 York St,San Francisco,CA,94110,970000,2,1.0,San Francisco,1050,1716,1936,19,924,,Active,,,http://www.redfin.com/CA/San-Francisco/1690-York-St-94110/home/1856224,San Francisco MLS,421578319,N,Y,37.7464816,-122.4055569
MLS Listing,,Single Family Residential,55 Garnett Ter,San Francisco,CA,94124-2571,949000,3,2.0,Bayview,1600,1716,1996,19,593,168,Active,,,http://www.redfin.com/CA/San-Francisco/55-Garnett-Ter-94124/home/1575807,"bridgeMLS, Bay East AOR, or Contra Costa AOR",40960376,N,Y,37.7325991,-122.3819575
MLS Listing,,Condo/Co-op,400 Bristol Ct #302,San Francisco,CA,94130,832000,0,1.0,San Francisco,728,,,19,1143,1289,Active,,,http://www.redfin.com/CA/San-Francisco/1-Yerba-Buena-Rd-94130/unit-302/home/175843760,San Francisco MLS,421578277,N,Y,37.8108709,-122.3668348
MLS Listing,,Single Family Residential,64 Marietta Dr,San Francisco,CA,94127,1675000,3,1.5,San Francisco,1820,2927,1932,19,920,,Active,,,http://www.redfin.com/CA/San-Francisco/64-Marietta-Dr-94127/home/1003227,San Francisco MLS,421569670,N,Y,37.7417712,-122.4493037
MLS Listing,,Condo/Co-op,159 Shipley St,SAN FRANCISCO,CA,94107,899900,2,1.0,SAN FRANCISCO,801,,1992,20,1123,599,Active,,,http://www.redfin.com/CA/San-Francisco/159-Shipley-94107/home/1985780,MLSListings,ML81855215,N,Y,37.780389,-122.401735
